{"type": "Feature", "properties": {"hash": "d1605898b0bd6600", "number": "349", "street": "Fairview Avenue", "unit": "", "city": "Orange", "district": "", "region": "NJ", "postcode": "07050", "id": null}, "geometry": {"type": "Point", "coordinates": [-74.2407212, 40.7612139]}}
{"type": "Feature", "properties": {"hash": "a9149365533511c9", "number": "35", "street": "Smull Avenue", "unit": "Apartment 1", "city": "Caldwell", "district": "", "region": "NJ", "postcode": "07006", "id": null}, "geometry": {"type": "Point", "coordinates": [-74.2741588, 40.8419369]}}
{"type": "Feature", "properties": {"hash": "4fef7d8cfb1d1d33", "number": "33", "street": "Smull Avenue", "unit": "", "city": "Caldwell", "district": "", "region": "NJ", "postcode": "07006", "id": null}, "geometry": {"type": "Point", "coordinates": [-74.2744433, 40.8417405]}}
{"type": "Feature", "properties": {"hash": "4187690ea78b8f1b", "number": "397", "street": "Hillside Avenue", "unit": "", "city": "Orange", "district": "", "region": "NJ", "postcode": "07050", "id": null}, "geometry": {"type": "Point", "coordinates": [-74.242768, 40.7611201]}}
{"type": "Feature", "properties": {"hash": "d5d834c84ba076d2", "number": "370", "street": "Fairview Avenue", "unit": "", "city": "Orange", "district": "", "region": "NJ", "postcode": "07050", "id": null}, "geometry": {"type": "Point", "coordinates": [-74.2416856, 40.7612573]}}
{"type": "Feature", "properties": {"hash": "4f321e0548a7a60e", "number": "246", "street": "Duane Street", "unit": "", "city": "Orange", "district": "", "region": "NJ", "postcode": "07050", "id": null}, "geometry": {"type": "Point", "coordinates": [-74.2233978, 40.7774194]}}
{"type": "Feature", "properties": {"hash": "214d6148babb13b1", "number": "241", "street": "Duane Street", "unit": "", "city": "Orange", "district": "", "region": "NJ", "postcode": "07050", "id": null}, "geometry": {"type": "Point", "coordinates": [-74.2238902, 40.7774768]}}
{"type": "Feature", "properties": {"hash": "6b2703e580bf15cc", "number": "125", "street": "North   Essex Avenue", "unit": "", "city": "Orange", "district": "", "region": "NJ", "postcode": "07050", "id": null}, "geometry": {"type": "Point", "coordinates": [-74.2284728, 40.7757973]}}
{"type": "Feature", "properties": {"hash": "3139b81ff1164462", "number": "346", "street": "Mechanic Street", "unit": "", "city": "Orange", "district": "", "region": "NJ", "postcode": "07050", "id": null}, "geometry": {"type": "Point", "coordinates": [-74.2342833, 40.769009]}}
{"type": "Feature", "properties": {"hash": "00a1a0b9e89dd4b0", "number": "218", "street": "Wood Street", "unit": "", "city": "Tuckerton", "district": "", "region": "NJ", "postcode": "08087", "id": null}, "geometry": {"type": "Point", "coordinates": [-74.3387808, 39.606004]}}
{"type": "Feature", "properties": {"hash": "124230284a742fdf", "number": "96", "street": "Fairway Drive", "unit": "", "city": "Tuckerton", "district": "", "region": "NJ", "postcode": "08087", "id": null}, "geometry": {"type": "Point", "coordinates": [-74.3240058, 39.6058593]}}
{"type": "Feature", "properties": {"hash": "1c4b4d6ed33b2163", "number": "327", "street": "East   Main Street", "unit": "", "city": "Tuckerton", "district": "", "region": "NJ", "postcode": "08087", "id": null}, "geometry": {"type": "Point", "coordinates": [-74.3319573, 39.6054293]}}
{"type": "Feature", "properties": {"hash": "18b10892abe10055", "number": "216", "street": "Wood Street", "unit": "", "city": "Tuckerton", "district": "", "region": "NJ", "postcode": "08087", "id": null}, "geometry": {"type": "Point", "coordinates": [-74.3387808, 39.6060314]}}
{"type": "Feature", "properties": {"hash": "8311d752f7c2bfac", "number": "75", "street": "Admiral Drive", "unit": "", "city": "Tuckerton", "district": "", "region": "NJ", "postcode": "08087", "id": null}, "geometry": {"type": "Point", "coordinates": [-74.3250713, 39.6058769]}}
{"type": "Feature", "properties": {"hash": "9d4f8935a6bea0aa", "number": "211", "street": "1st Avenue", "unit": "", "city": "Tuckerton", "district": "", "region": "NJ", "postcode": "08087", "id": null}, "geometry": {"type": "Point", "coordinates": [-74.344888, 39.6071885]}}
{"type": "Feature", "properties": {"hash": "c1ab0f22762fba3d", "number": "380", "street": "Marine Street", "unit": "", "city": "Tuckerton", "district": "", "region": "NJ", "postcode": "08087", "id": null}, "geometry": {"type": "Point", "coordinates": [-74.3358205, 39.5960694]}}
{"type": "Feature", "properties": {"hash": "bfe80e7ebe4cb9f0", "number": "381", "street": "South   Green Street", "unit": "", "city": "Tuckerton", "district": "", "region": "NJ", "postcode": "08087", "id": null}, "geometry": {"type": "Point", "coordinates": [-74.3391788, 39.5961708]}}
{"type": "Feature", "properties": {"hash": "f83eef9157af24f2", "number": "445", "street": "South   Green Street", "unit": "", "city": "Tuckerton", "district": "", "region": "NJ", "postcode": "08087", "id": null}, "geometry": {"type": "Point", "coordinates": [-74.3383206, 39.5931303]}}
{"type": "Feature", "properties": {"hash": "3cc6261950c60479", "number": "487", "street": "Ridgewood Road", "unit": "", "city": "Maplewood", "district": "", "region": "NJ", "postcode": "07040", "id": null}, "geometry": {"type": "Point", "coordinates": [-74.2774654, 40.7378529]}}
{"type": "Feature", "properties": {"hash": "0d0d46d44d3b0d54", "number": "12", "street": "South   Burnett Street", "unit": "", "city": "East Orange", "district": "", "region": "NJ", "postcode": "07017", "id": null}, "geometry": {"type": "Point", "coordinates": [-74.2142613, 40.763034]}}
{"type": "Feature", "properties": {"hash": "1de8a1958b9c160b", "number": "356", "street": "William Street", "unit": "", "city": "East Orange", "district": "", "region": "NJ", "postcode": "07017", "id": null}, "geometry": {"type": "Point", "coordinates": [-74.2096569, 40.7644942]}}
{"type": "Feature", "properties": {"hash": "a525a7901a758c54", "number": "374", "street": "William Street", "unit": "", "city": "East Orange", "district": "", "region": "NJ", "postcode": "07017", "id": null}, "geometry": {"type": "Point", "coordinates": [-74.2101466, 40.7647343]}}
{"type": "Feature", "properties": {"hash": "68d58b16957f6dea", "number": "10", "street": "Lindsley Avenue", "unit": "", "city": "Maplewood", "district": "", "region": "NJ", "postcode": "07040", "id": null}, "geometry": {"type": "Point", "coordinates": [-74.2527534, 40.7380646]}}
{"type": "Feature", "properties": {"hash": "e70b6059d896eb94", "number": "12", "street": "Hoffman Street", "unit": "", "city": "Maplewood", "district": "", "region": "NJ", "postcode": "07040", "id": null}, "geometry": {"type": "Point", "coordinates": [-74.2758513, 40.7380478]}}
{"type": "Feature", "properties": {"hash": "4f919ffb17ceb566", "number": "52", "street": "Headley Place", "unit": "", "city": "Maplewood", "district": "", "region": "NJ", "postcode": "07040", "id": null}, "geometry": {"type": "Point", "coordinates": [-74.2736529, 40.7385382]}}
{"type": "Feature", "properties": {"hash": "0e9f4e5a8a6b40f0", "number": "440", "street": "Walton Road", "unit": "", "city": "Maplewood", "district": "", "region": "NJ", "postcode": "07040", "id": null}, "geometry": {"type": "Point", "coordinates": [-74.2712012, 40.7384597]}}
{"type": "Feature", "properties": {"hash": "34303eeec979270b", "number": "23", "street": "Madison Avenue", "unit": "", "city": "Maplewood", "district": "", "region": "NJ", "postcode": "07040", "id": null}, "geometry": {"type": "Point", "coordinates": [-74.2643968, 40.7288984]}}
{"type": "Feature", "properties": {"hash": "fb92dafdab0927f0", "number": "1101", "street": "North   Bay Avenue", "unit": "", "city": "Beach Haven", "district": "", "region": "NJ", "postcode": "08008", "id": null}, "geometry": {"type": "Point", "coordinates": [-74.2347732, 39.5707295]}}
{"type": "Feature", "properties": {"hash": "14c5e5139771f98b", "number": "423", "street": "Holyoke Avenue", "unit": "", "city": "Beach Haven", "district": "", "region": "NJ", "postcode": "08008", "id": null}, "geometry": {"type": "Point", "coordinates": [-74.2498791, 39.5547948]}}
{"type": "Feature", "properties": {"hash": "acbcab621c7b472c", "number": "101", "street": "Essex Avenue", "unit": "", "city": "Beach Haven", "district": "", "region": "NJ", "postcode": "08008", "id": null}, "geometry": {"type": "Point", "coordinates": [-74.2425833, 39.5547396]}}
{"type": "Feature", "properties": {"hash": "b2cef422c3629d46", "number": "108", "street": "Essex Avenue", "unit": "", "city": "Beach Haven", "district": "", "region": "NJ", "postcode": "08008", "id": null}, "geometry": {"type": "Point", "coordinates": [-74.2430716, 39.5545349]}}
{"type": "Feature", "properties": {"hash": "9910068e5ae73a85", "number": "214", "street": "12th Street", "unit": "", "city": "Beach Haven", "district": "", "region": "NJ", "postcode": "08008", "id": null}, "geometry": {"type": "Point", "coordinates": [-74.2338078, 39.5707485]}}
{"type": "Feature", "properties": {"hash": "a73fb2f2b614558d", "number": "507", "street": "North   Beach Avenue", "unit": "", "city": "Beach Haven", "district": "", "region": "NJ", "postcode": "08008", "id": null}, "geometry": {"type": "Point", "coordinates": [-74.2361546, 39.5661023]}}
{"type": "Feature", "properties": {"hash": "acf869da80283ed2", "number": "420", "street": "3rd Street", "unit": "", "city": "Beach Haven", "district": "", "region": "NJ", "postcode": "08008", "id": null}, "geometry": {"type": "Point", "coordinates": [-74.2415799, 39.5661359]}}
{"type": "Feature", "properties": {"hash": "b37760731e9cdf6a", "number": "126", "street": "6th Street", "unit": "", "city": "Beach Haven", "district": "", "region": "NJ", "postcode": "08008", "id": null}, "geometry": {"type": "Point", "coordinates": [-74.2356929, 39.5661549]}}
{"type": "Feature", "properties": {"hash": "e845fa1215b85042", "number": "308", "street": "North   Delaware Avenue", "unit": "", "city": "Beach Haven", "district": "", "region": "NJ", "postcode": "08008", "id": null}, "geometry": {"type": "Point", "coordinates": [-74.240658, 39.566125]}}
{"type": "Feature", "properties": {"hash": "21fe0ce50b62bfce", "number": "229", "street": "Pearce Avenue", "unit": "", "city": "Point Pleasant Boro", "district": "", "region": "NJ", "postcode": "08742", "id": null}, "geometry": {"type": "Point", "coordinates": [-74.083775, 40.0886006]}}
{"type": "Feature", "properties": {"hash": "40e3e2009826ce11", "number": "900", "street": "Ocean Avenue", "unit": "UNIT 9", "city": "Point Pleasant Beach", "district": "", "region": "NJ", "postcode": "08742", "id": null}, "geometry": {"type": "Point", "coordinates": [-74.0381418, 40.0882454]}}
{"type": "Feature", "properties": {"hash": "32a6cd311e170746", "number": "600", "street": "Ocean Road", "unit": "", "city": "Point Pleasant Boro", "district": "", "region": "NJ", "postcode": "08742", "id": null}, "geometry": {"type": "Point", "coordinates": [-74.0486678, 40.0799424]}}
{"type": "Feature", "properties": {"hash": "13d6f201db32fbc7", "number": "1410", "street": "Johnson Ave Unit", "unit": "UNIT 22", "city": "Point Pleasant Boro", "district": "", "region": "NJ", "postcode": "08742", "id": null}, "geometry": {"type": "Point", "coordinates": [-74.0649842, 40.0804001]}}
{"type": "Feature", "properties": {"hash": "51ccf72b06286fe9", "number": "1117", "street": "Wessie Street", "unit": "", "city": "Point Pleasant Beach", "district": "", "region": "NJ", "postcode": "08742", "id": null}, "geometry": {"type": "Point", "coordinates": [-74.0500506, 40.0846939]}}
{"type": "Feature", "properties": {"hash": "91ab882898537a03", "number": "508", "street": "Cramer Avenue", "unit": "", "city": "Point Pleasant Beach", "district": "", "region": "NJ", "postcode": "08742", "id": null}, "geometry": {"type": "Point", "coordinates": [-74.0529983, 40.0907133]}}
{"type": "Feature", "properties": {"hash": "5d4b60cb505a2de1", "number": "527", "street": "Bay Avenue", "unit": "", "city": "Point Pleasant Beach", "district": "", "region": "NJ", "postcode": "08742", "id": null}, "geometry": {"type": "Point", "coordinates": [-74.0519555, 40.0906914]}}
{"type": "Feature", "properties": {"hash": "f4498b9f602e6f4b", "number": "1110", "street": "Marcia Avenue", "unit": "", "city": "Point Pleasant Beach", "district": "", "region": "NJ", "postcode": "08742", "id": null}, "geometry": {"type": "Point", "coordinates": [-74.0506683, 40.0850011]}}
{"type": "Feature", "properties": {"hash": "60900154f37ae522", "number": "202", "street": "Washington Avenue", "unit": "", "city": "Point Pleasant Beach", "district": "", "region": "NJ", "postcode": "08742", "id": null}, "geometry": {"type": "Point", "coordinates": [-74.0414992, 40.0849318]}}
{"type": "Feature", "properties": {"hash": "61931f1f2410da61", "number": "346", "street": "River Terrace", "unit": "", "city": "Toms River", "district": "", "region": "NJ", "postcode": "08755", "id": null}, "geometry": {"type": "Point", "coordinates": [-74.2135817, 39.9547289]}}
{"type": "Feature", "properties": {"hash": "5dfdfd4f0b335e72", "number": "2", "street": "Windsong Court", "unit": "", "city": "Jackson", "district": "", "region": "NJ", "postcode": "08527", "id": null}, "geometry": {"type": "Point", "coordinates": [-74.2759821, 40.1034132]}}
{"type": "Feature", "properties": {"hash": "b8adbf228750885b", "number": "12", "street": "Summers Drive", "unit": "", "city": "Jackson", "district": "", "region": "NJ", "postcode": "08527", "id": null}, "geometry": {"type": "Point", "coordinates": [-74.2768635, 40.1033083]}}
{"type": "Feature", "properties": {"hash": "dd3d3a2ebec71c4d", "number": "2", "street": "Cedarwood Drive", "unit": "", "city": "Toms River", "district": "", "region": "NJ", "postcode": "08755", "id": null}, "geometry": {"type": "Point", "coordinates": [-74.2212808, 39.9692032]}}
{"type": "Feature", "properties": {"hash": "9f4fd29de2637c4b", "number": "14", "street": "Ranch Road", "unit": "", "city": "Toms River", "district": "", "region": "NJ", "postcode": "08755", "id": null}, "geometry": {"type": "Point", "coordinates": [-74.2108575, 39.9530875]}}
{"type": "Feature", "properties": {"hash": "42c13fc8afcd29e4", "number": "545", "street": "River Terrace", "unit": "", "city": "Toms River", "district": "", "region": "NJ", "postcode": "08755", "id": null}, "geometry": {"type": "Point", "coordinates": [-74.2290925, 39.9626893]}}
{"type": "Feature", "properties": {"hash": "78c3a388d50973e3", "number": "16", "street": "Gem Avenue", "unit": "", "city": "Toms River", "district": "", "region": "NJ", "postcode": "08755", "id": null}, "geometry": {"type": "Point", "coordinates": [-74.2137569, 39.9571217]}}
{"type": "Feature", "properties": {"hash": "e6df3c91b2879fac", "number": "95", "street": "Cardinal Drive", "unit": "", "city": "Toms River", "district": "", "region": "NJ", "postcode": "08755", "id": null}, "geometry": {"type": "Point", "coordinates": [-74.2265999, 39.9763972]}}
{"type": "Feature", "properties": {"hash": "c2388e25baaba558", "number": "1194", "street": "State Highway  37", "unit": "", "city": "Toms River", "district": "", "region": "NJ", "postcode": "08755", "id": null}, "geometry": {"type": "Point", "coordinates": [-74.2489058, 39.9793545]}}
{"type": "Feature", "properties": {"hash": "d7ef2787a0c85f50", "number": "450", "street": "Cedar Drive", "unit": "", "city": "Lanoka Harbor", "district": "", "region": "NJ", "postcode": "08734", "id": null}, "geometry": {"type": "Point", "coordinates": [-74.1559236, 39.858894]}}
{"type": "Feature", "properties": {"hash": "40ea0dbb039f2222", "number": "880", "street": "Arlington Avenue", "unit": "", "city": "Forked River", "district": "", "region": "NJ", "postcode": "08731", "id": null}, "geometry": {"type": "Point", "coordinates": [-74.2126694, 39.8553601]}}
{"type": "Feature", "properties": {"hash": "2c2e55fe5c726382", "number": "22", "street": "Haines Street East", "unit": "", "city": "Lanoka Harbor", "district": "", "region": "NJ", "postcode": "08734", "id": null}, "geometry": {"type": "Point", "coordinates": [-74.1752412, 39.8562188]}}
{"type": "Feature", "properties": {"hash": "5857b05abc321269", "number": "928", "street": "Elwood Street", "unit": "", "city": "Forked River", "district": "", "region": "NJ", "postcode": "08731", "id": null}, "geometry": {"type": "Point", "coordinates": [-74.2136141, 39.8589766]}}
{"type": "Feature", "properties": {"hash": "4cbe77afc8b5ee0a", "number": "51", "street": "Haines Road", "unit": "", "city": "Lanoka Harbor", "district": "", "region": "NJ", "postcode": "08734", "id": null}, "geometry": {"type": "Point", "coordinates": [-74.1858449, 39.8589244]}}
{"type": "Feature", "properties": {"hash": "8a0c7d0bdf847701", "number": "414", "street": "Hemlock Drive", "unit": "", "city": "Lanoka Harbor", "district": "", "region": "NJ", "postcode": "08734", "id": null}, "geometry": {"type": "Point", "coordinates": [-74.1613009, 39.8602276]}}
{"type": "Feature", "properties": {"hash": "a74357ec8f5388cd", "number": "400", "street": "Nautilus Boulevard", "unit": "", "city": "Forked River", "district": "", "region": "NJ", "postcode": "08731", "id": null}, "geometry": {"type": "Point", "coordinates": [-74.170258, 39.8470676]}}
{"type": "Feature", "properties": {"hash": "e9271a08e8c610d4", "number": "234", "street": "Willow Lane", "unit": "", "city": "Forked River", "district": "", "region": "NJ", "postcode": "08731", "id": null}, "geometry": {"type": "Point", "coordinates": [-74.1843189, 39.8449433]}}
{"type": "Feature", "properties": {"hash": "935e3070a0c7c8e7", "number": "9", "street": "Surrey Court", "unit": "", "city": "Forked River", "district": "", "region": "NJ", "postcode": "08731", "id": null}, "geometry": {"type": "Point", "coordinates": [-74.2199094, 39.8450569]}}
{"type": "Feature", "properties": {"hash": "acb7f25600ae93ef", "number": "713", "street": "Meadow Lane", "unit": "", "city": "Forked River", "district": "", "region": "NJ", "postcode": "08731", "id": null}, "geometry": {"type": "Point", "coordinates": [-74.1857734, 39.819238]}}
{"type": "Feature", "properties": {"hash": "d80e8a1765ae6846", "number": "234", "street": "Lane Place", "unit": "", "city": "Forked River", "district": "", "region": "NJ", "postcode": "08731", "id": null}, "geometry": {"type": "Point", "coordinates": [-74.1979884, 39.8430458]}}
{"type": "Feature", "properties": {"hash": "82dd93d93b1e57d6", "number": "1227", "street": "Taurus Court", "unit": "", "city": "Forked River", "district": "", "region": "NJ", "postcode": "08731", "id": null}, "geometry": {"type": "Point", "coordinates": [-74.170465, 39.8191884]}}
{"type": "Feature", "properties": {"hash": "a0334f8b50572fa3", "number": "1714", "street": "Binnacle Road", "unit": "", "city": "Forked River", "district": "", "region": "NJ", "postcode": "08731", "id": null}, "geometry": {"type": "Point", "coordinates": [-74.1633867, 39.8191503]}}
{"type": "Feature", "properties": {"hash": "3b93e32a559e79af", "number": "703", "street": "Pensacola Drive", "unit": "", "city": "Forked River", "district": "", "region": "NJ", "postcode": "08731", "id": null}, "geometry": {"type": "Point", "coordinates": [-74.1850535, 39.8192558]}}
{"type": "Feature", "properties": {"hash": "5dffce6ae772c56a", "number": "1250", "street": "Clearview Street", "unit": "", "city": "Forked River", "district": "", "region": "NJ", "postcode": "08731", "id": null}, "geometry": {"type": "Point", "coordinates": [-74.2046702, 39.8354492]}}
{"type": "Feature", "properties": {"hash": "09884eaab2f6b8e5", "number": "230", "street": "Faulkenburgh Avenue", "unit": "", "city": "Forked River", "district": "", "region": "NJ", "postcode": "08731", "id": null}, "geometry": {"type": "Point", "coordinates": [-74.1973433, 39.8444932]}}
{"type": "Feature", "properties": {"hash": "696197247b2639b3", "number": "268", "street": "Wallace Avenue", "unit": "", "city": "Forked River", "district": "", "region": "NJ", "postcode": "08731", "id": null}, "geometry": {"type": "Point", "coordinates": [-74.200309, 39.8428486]}}
{"type": "Feature", "properties": {"hash": "fbaa94946339ad5a", "number": "208", "street": "Cedar Lake Point", "unit": "", "city": "Forked River", "district": "", "region": "NJ", "postcode": "08731", "id": null}, "geometry": {"type": "Point", "coordinates": [-74.2030931, 39.8297351]}}
{"type": "Feature", "properties": {"hash": "ce536eda75883dac", "number": "71", "street": "Ridge Street", "unit": "Unit 1", "city": "Orange", "district": "", "region": "NJ", "postcode": "07050", "id": null}, "geometry": {"type": "Point", "coordinates": [-74.2340208, 40.7758843]}}
{"type": "Feature", "properties": {"hash": "e231f520fb30154b", "number": "584", "street": "McChesney Street", "unit": "", "city": "Orange", "district": "", "region": "NJ", "postcode": "07050", "id": null}, "geometry": {"type": "Point", "coordinates": [-74.2487808, 40.7634352]}}
{"type": "Feature", "properties": {"hash": "f6914af2d2112fa0", "number": "563", "street": "McChesney Street", "unit": "", "city": "Orange", "district": "", "region": "NJ", "postcode": "07050", "id": null}, "geometry": {"type": "Point", "coordinates": [-74.2478646, 40.7633691]}}
{"type": "Feature", "properties": {"hash": "82dd00bc535dacb3", "number": "278", "street": "Snyder Street", "unit": "", "city": "Orange", "district": "", "region": "NJ", "postcode": "07050", "id": null}, "geometry": {"type": "Point", "coordinates": [-74.2267077, 40.7751494]}}
{"type": "Feature", "properties": {"hash": "422f95acadd41788", "number": "205", "street": "Chapman Street", "unit": "", "city": "Orange", "district": "", "region": "NJ", "postcode": "07050", "id": null}, "geometry": {"type": "Point", "coordinates": [-74.2305949, 40.7663737]}}
{"type": "Feature", "properties": {"hash": "d3e40e10581df353", "number": "163", "street": "Taylor Street", "unit": "", "city": "Orange", "district": "", "region": "NJ", "postcode": "07050", "id": null}, "geometry": {"type": "Point", "coordinates": [-74.2287537, 40.7663806]}}
{"type": "Feature", "properties": {"hash": "d178c7e7e4cb7d65", "number": "318", "street": "Elizabeth Street", "unit": "", "city": "Orange", "district": "", "region": "NJ", "postcode": "07050", "id": null}, "geometry": {"type": "Point", "coordinates": [-74.2258231, 40.7787767]}}
{"type": "Feature", "properties": {"hash": "c53f5b67fbc295c4", "number": "244", "street": "Cleveland Street", "unit": "", "city": "Orange", "district": "", "region": "NJ", "postcode": "07050", "id": null}, "geometry": {"type": "Point", "coordinates": [-74.2268992, 40.7789267]}}
{"type": "Feature", "properties": {"hash": "138200cf823feb1d", "number": "355", "street": "Main Street", "unit": "", "city": "Orange", "district": "", "region": "NJ", "postcode": "07050", "id": null}, "geometry": {"type": "Point", "coordinates": [-74.2315612, 40.7732233]}}
{"type": "Feature", "properties": {"hash": "5777c6b8f75a2ba5", "number": "364", "street": "Leslie Street", "unit": "", "city": "Newark", "district": "", "region": "NJ", "postcode": "07112", "id": null}, "geometry": {"type": "Point", "coordinates": [-74.2221899, 40.7115147]}}
{"type": "Feature", "properties": {"hash": "e1caeadd9b934c97", "number": "100", "street": "Park Avenue", "unit": "", "city": "East Orange", "district": "", "region": "NJ", "postcode": "07017", "id": null}, "geometry": {"type": "Point", "coordinates": [-74.1972876, 40.7632247]}}
{"type": "Feature", "properties": {"hash": "1797ebda8099af2a", "number": "393", "street": "Clinton Place", "unit": "", "city": "Newark", "district": "", "region": "NJ", "postcode": "07112", "id": null}, "geometry": {"type": "Point", "coordinates": [-74.2165001, 40.7103001]}}
{"type": "Feature", "properties": {"hash": "6e7b6301d77b8582", "number": "191", "street": "Hansbury Avenue", "unit": "", "city": "Newark", "district": "", "region": "NJ", "postcode": "07112", "id": null}, "geometry": {"type": "Point", "coordinates": [-74.2177354, 40.7067475]}}
{"type": "Feature", "properties": {"hash": "f1787d2fa0644e5d", "number": "366", "street": "Leslie Street", "unit": "", "city": "Newark", "district": "", "region": "NJ", "postcode": "07112", "id": null}, "geometry": {"type": "Point", "coordinates": [-74.2222678, 40.7114434]}}
{"type": "Feature", "properties": {"hash": "170125ec06124cb1", "number": "372", "street": "Leslie Street", "unit": "", "city": "Newark", "district": "", "region": "NJ", "postcode": "07112", "id": null}, "geometry": {"type": "Point", "coordinates": [-74.222406, 40.7112784]}}
{"type": "Feature", "properties": {"hash": "98db348ef80c3268", "number": "374", "street": "Leslie Street", "unit": "", "city": "Newark", "district": "", "region": "NJ", "postcode": "07112", "id": null}, "geometry": {"type": "Point", "coordinates": [-74.2224771, 40.7112061]}}
{"type": "Feature", "properties": {"hash": "a24f2402914392f6", "number": "156", "street": "Ferry Street", "unit": "", "city": "Newark", "district": "", "region": "NJ", "postcode": "07105", "id": null}, "geometry": {"type": "Point", "coordinates": [-74.1581965, 40.7293312]}}
{"type": "Feature", "properties": {"hash": "8a31bfedf5c408aa", "number": "264", "street": "Ferry Street", "unit": "", "city": "Newark", "district": "", "region": "NJ", "postcode": "07105", "id": null}, "geometry": {"type": "Point", "coordinates": [-74.1528301, 40.7286791]}}
{"type": "Feature", "properties": {"hash": "95846843fe248eb1", "number": "126", "street": "West   Heather Road", "unit": "", "city": "Wildwood", "district": "", "region": "NJ", "postcode": "08260", "id": null}, "geometry": {"type": "Point", "coordinates": [-74.8317177, 38.980475]}}
{"type": "Feature", "properties": {"hash": "c60024a985056262", "number": "108", "street": "6th Avenue", "unit": "", "city": "Cape May", "district": "", "region": "NJ", "postcode": "08204", "id": null}, "geometry": {"type": "Point", "coordinates": [-74.930656, 38.9399594]}}
{"type": "Feature", "properties": {"hash": "2402c52e663f569a", "number": "110", "street": "6th Avenue", "unit": "", "city": "Cape May", "district": "", "region": "NJ", "postcode": "08204", "id": null}, "geometry": {"type": "Point", "coordinates": [-74.9306558, 38.9399319]}}
{"type": "Feature", "properties": {"hash": "59a4a59839126656", "number": "124", "street": "West   Heather Road", "unit": "", "city": "Wildwood", "district": "", "region": "NJ", "postcode": "08260", "id": null}, "geometry": {"type": "Point", "coordinates": [-74.8317179, 38.9805024]}}
{"type": "Feature", "properties": {"hash": "93ca94067efe0c2b", "number": "6805", "street": "Landis Avenue", "unit": "", "city": "Sea Isle City", "district": "", "region": "NJ", "postcode": "08243", "id": null}, "geometry": {"type": "Point", "coordinates": [-74.7051142, 39.1372439]}}
{"type": "Feature", "properties": {"hash": "a0b48dbe7ddb5905", "number": "125", "street": "Engleside Avenue", "unit": "UNIT 1", "city": "Beach Haven", "district": "", "region": "NJ", "postcode": "08008", "id": null}, "geometry": {"type": "Point", "coordinates": [-74.2382834, 39.5622271]}}
{"type": "Feature", "properties": {"hash": "f05f2c2439bdf416", "number": "217", "street": "Ocean Street", "unit": "", "city": "Beach Haven", "district": "", "region": "NJ", "postcode": "08008", "id": null}, "geometry": {"type": "Point", "coordinates": [-74.2420288, 39.5592905]}}
{"type": "Feature", "properties": {"hash": "51c4be2e08bbc56b", "number": "500", "street": "South   Beach Avenue", "unit": "", "city": "Beach Haven", "district": "", "region": "NJ", "postcode": "08008", "id": null}, "geometry": {"type": "Point", "coordinates": [-74.2412168, 39.5593582]}}
{"type": "Feature", "properties": {"hash": "6c41aae9288433ee", "number": "20", "street": "Pearl Street", "unit": "UNIT 8", "city": "Beach Haven", "district": "", "region": "NJ", "postcode": "08008", "id": null}, "geometry": {"type": "Point", "coordinates": [-74.2388106, 39.5590998]}}
{"type": "Feature", "properties": {"hash": "c686a43a37154df5", "number": "506", "street": "Adelaide Road", "unit": "", "city": "Point Pleasant Boro", "district": "", "region": "NJ", "postcode": "08742", "id": null}, "geometry": {"type": "Point", "coordinates": [-74.0885782, 40.0883084]}}
{"type": "Feature", "properties": {"hash": "066fac77b9426ad2", "number": "300", "street": "Norwood Avenue", "unit": "", "city": "Beach Haven", "district": "", "region": "NJ", "postcode": "08008", "id": null}, "geometry": {"type": "Point", "coordinates": [-74.2442166, 39.5582613]}}
{"type": "Feature", "properties": {"hash": "9f9fb48d98a4a130", "number": "2123", "street": "Foster Road", "unit": "", "city": "Point Pleasant Boro", "district": "", "region": "NJ", "postcode": "08742", "id": null}, "geometry": {"type": "Point", "coordinates": [-74.0660864, 40.0750277]}}
{"type": "Feature", "properties": {"hash": "286b06ff9d7effef", "number": "601", "street": "Hillside Avenue", "unit": "", "city": "Point Pleasant Boro", "district": "", "region": "NJ", "postcode": "08742", "id": null}, "geometry": {"type": "Point", "coordinates": [-74.0851978, 40.0833546]}}
{"type": "Feature", "properties": {"hash": "a5c27bda1e6ba395", "number": "2511", "street": "River Road", "unit": "", "city": "Point Pleasant Boro", "district": "", "region": "NJ", "postcode": "08742", "id": null}, "geometry": {"type": "Point", "coordinates": [-74.0743875, 40.0879544]}}
{"type": "Feature", "properties": {"hash": "42f8012a5efcdd43", "number": "216", "street": "Paulison Avenue", "unit": "", "city": "Point Pleasant Boro", "district": "", "region": "NJ", "postcode": "08742", "id": null}, "geometry": {"type": "Point", "coordinates": [-74.0823468, 40.0883484]}}
{"type": "Feature", "properties": {"hash": "f47e5a01c4748c44", "number": "3724", "street": "River Road", "unit": "", "city": "Point Pleasant Boro", "district": "", "region": "NJ", "postcode": "08742", "id": null}, "geometry": {"type": "Point", "coordinates": [-74.0852172, 40.0922287]}}
{"type": "Feature", "properties": {"hash": "851e10d6306a4497", "number": "116", "street": "Harrow Lane", "unit": "", "city": "Point Pleasant Boro", "district": "", "region": "NJ", "postcode": "08742", "id": null}, "geometry": {"type": "Point", "coordinates": [-74.0824196, 40.0921355]}}
{"type": "Feature", "properties": {"hash": "747432b9aa4f1c96", "number": "1116", "street": "Borden Avenue", "unit": "", "city": "Point Pleasant Boro", "district": "", "region": "NJ", "postcode": "08742", "id": null}, "geometry": {"type": "Point", "coordinates": [-74.0567871, 40.084657]}}
{"type": "Feature", "properties": {"hash": "4a75c5178a93b328", "number": "10", "street": "Bowman Road", "unit": "", "city": "Jackson", "district": "", "region": "NJ", "postcode": "08527", "id": null}, "geometry": {"type": "Point", "coordinates": [-74.3054203, 40.0867204]}}
{"type": "Feature", "properties": {"hash": "71c8cbe9c8a7f6b5", "number": "607", "street": "Bromelia Court", "unit": "", "city": "Jackson", "district": "", "region": "NJ", "postcode": "08527", "id": null}, "geometry": {"type": "Point", "coordinates": [-74.2801396, 40.1218405]}}
{"type": "Feature", "properties": {"hash": "571911fda62e35d6", "number": "20", "street": "Bowman Road", "unit": "", "city": "Jackson", "district": "", "region": "NJ", "postcode": "08527", "id": null}, "geometry": {"type": "Point", "coordinates": [-74.3059723, 40.0866938]}}
{"type": "Feature", "properties": {"hash": "87bc25f79f8c91af", "number": "31", "street": "Jefferson Court", "unit": "", "city": "Jackson", "district": "", "region": "NJ", "postcode": "08527", "id": null}, "geometry": {"type": "Point", "coordinates": [-74.2987073, 40.086707]}}
{"type": "Feature", "properties": {"hash": "6ab389359ec6ad4a", "number": "32", "street": "Bowman Road", "unit": "", "city": "Jackson", "district": "", "region": "NJ", "postcode": "08527", "id": null}, "geometry": {"type": "Point", "coordinates": [-74.306379, 40.0868821]}}
{"type": "Feature", "properties": {"hash": "9634d6604b760069", "number": "25", "street": "Jefferson Court", "unit": "", "city": "Jackson", "district": "", "region": "NJ", "postcode": "08527", "id": null}, "geometry": {"type": "Point", "coordinates": [-74.300677, 40.0869279]}}
{"type": "Feature", "properties": {"hash": "c328c1f0184f952f", "number": "33", "street": "Jefferson Court", "unit": "", "city": "Jackson", "district": "", "region": "NJ", "postcode": "08527", "id": null}, "geometry": {"type": "Point", "coordinates": [-74.2982213, 40.0869]}}
{"type": "Feature", "properties": {"hash": "06bb984c17d31028", "number": "55", "street": "Westlake Court", "unit": "", "city": "Jackson", "district": "", "region": "NJ", "postcode": "08527", "id": null}, "geometry": {"type": "Point", "coordinates": [-74.2871519, 40.0860574]}}
{"type": "Feature", "properties": {"hash": "18d879c59b6aec53", "number": "26", "street": "McCurdy Lane", "unit": "", "city": "Jackson", "district": "", "region": "NJ", "postcode": "08527", "id": null}, "geometry": {"type": "Point", "coordinates": [-74.2636279, 40.1324577]}}
{"type": "Feature", "properties": {"hash": "abde5a5f893abe36", "number": "102", "street": "Cedar Drive", "unit": "", "city": "Colts Neck", "district": "", "region": "NJ", "postcode": "07722", "id": null}, "geometry": {"type": "Point", "coordinates": [-74.1970645, 40.2969693]}}
{"type": "Feature", "properties": {"hash": "ddec79609e7cbbdf", "number": "1", "street": "Sunrise Court", "unit": "", "city": "Colts Neck", "district": "", "region": "NJ", "postcode": "07722", "id": null}, "geometry": {"type": "Point", "coordinates": [-74.1958847, 40.3043897]}}
{"type": "Feature", "properties": {"hash": "96df2f832d6f7108", "number": "6", "street": "Shadowbrook Drive", "unit": "", "city": "Colts Neck", "district": "", "region": "NJ", "postcode": "07722", "id": null}, "geometry": {"type": "Point", "coordinates": [-74.1970896, 40.3041146]}}
{"type": "Feature", "properties": {"hash": "edbd9c9e4e72ccbb", "number": "2", "street": "Utopia Drive", "unit": "", "city": "Colts Neck", "district": "", "region": "NJ", "postcode": "07722", "id": null}, "geometry": {"type": "Point", "coordinates": [-74.1489684, 40.3112626]}}
{"type": "Feature", "properties": {"hash": "e32836d203de48cb", "number": "35", "street": "Avenue A", "unit": "", "city": "Freehold", "district": "", "region": "NJ", "postcode": "07728", "id": null}, "geometry": {"type": "Point", "coordinates": [-74.282766, 40.2657558]}}
{"type": "Feature", "properties": {"hash": "671c8eeff0d1c5b8", "number": "9", "street": "Wellington Drive", "unit": "", "city": "Tinton Falls", "district": "", "region": "NJ", "postcode": "07724", "id": null}, "geometry": {"type": "Point", "coordinates": [-74.1046607, 40.3074664]}}
{"type": "Feature", "properties": {"hash": "7dc124737cb9c2ec", "number": "32", "street": "Reeds Road", "unit": "", "city": "Tinton Falls", "district": "", "region": "NJ", "postcode": "07724", "id": null}, "geometry": {"type": "Point", "coordinates": [-74.0933085, 40.3100928]}}
{"type": "Feature", "properties": {"hash": "fd372f5a18fc2734", "number": "5", "street": "Daniel Court", "unit": "", "city": "Eatontown", "district": "", "region": "NJ", "postcode": "07724", "id": null}, "geometry": {"type": "Point", "coordinates": [-74.1050806, 40.2848234]}}
{"type": "Feature", "properties": {"hash": "8d368d7610bece08", "number": "51", "street": "County Route  537  East", "unit": "", "city": "Colts Neck", "district": "", "region": "NJ", "postcode": "07722", "id": null}, "geometry": {"type": "Point", "coordinates": [-74.1673812, 40.2908688]}}
{"type": "Feature", "properties": {"hash": "a672297a5c008b14", "number": "3", "street": "Canvasback Road", "unit": "", "city": "Manalapan", "district": "", "region": "NJ", "postcode": "07726", "id": null}, "geometry": {"type": "Point", "coordinates": [-74.3442825, 40.3077212]}}
{"type": "Feature", "properties": {"hash": "bd9c08647dc7154c", "number": "13", "street": "Astor Drive", "unit": "", "city": "Manalapan", "district": "", "region": "NJ", "postcode": "07726", "id": null}, "geometry": {"type": "Point", "coordinates": [-74.3483955, 40.2487921]}}
{"type": "Feature", "properties": {"hash": "3c3956209557ca1b", "number": "8", "street": "Lewis Street", "unit": "", "city": "Manalapan", "district": "", "region": "NJ", "postcode": "07726", "id": null}, "geometry": {"type": "Point", "coordinates": [-74.3745142, 40.3069877]}}
{"type": "Feature", "properties": {"hash": "4b1082e27074d81d", "number": "26", "street": "Story Court", "unit": "", "city": "Freehold", "district": "", "region": "NJ", "postcode": "07728", "id": null}, "geometry": {"type": "Point", "coordinates": [-74.2845451, 40.2401047]}}
{"type": "Feature", "properties": {"hash": "c000baf6e8a028c8", "number": "32", "street": "Mohawk Lane", "unit": "", "city": "Manalapan", "district": "", "region": "NJ", "postcode": "07726", "id": null}, "geometry": {"type": "Point", "coordinates": [-74.3365112, 40.324482]}}
{"type": "Feature", "properties": {"hash": "4c46ace84699fdf5", "number": "622", "street": "Agnes Avenue", "unit": "", "city": "Brielle", "district": "", "region": "NJ", "postcode": "08730", "id": null}, "geometry": {"type": "Point", "coordinates": [-74.0554543, 40.1171768]}}
{"type": "Feature", "properties": {"hash": "04dfa4caba1d6057", "number": "517", "street": "St Clair Avenue", "unit": "", "city": "Spring Lake", "district": "", "region": "NJ", "postcode": "07762", "id": null}, "geometry": {"type": "Point", "coordinates": [-74.03361, 40.1560688]}}
{"type": "Feature", "properties": {"hash": "b435efda178250c4", "number": "7", "street": "McDonald Way", "unit": "", "city": "Englishtown", "district": "", "region": "NJ", "postcode": "07726", "id": null}, "geometry": {"type": "Point", "coordinates": [-74.3541353, 40.294265]}}
{"type": "Feature", "properties": {"hash": "fd885e5dbcdbaa18", "number": "12", "street": "Dancer Lane", "unit": "", "city": "Freehold", "district": "", "region": "NJ", "postcode": "07728", "id": null}, "geometry": {"type": "Point", "coordinates": [-74.3267475, 40.2307962]}}
{"type": "Feature", "properties": {"hash": "7c8025bd36a75afe", "number": "115", "street": "Woodward Court", "unit": "", "city": "Neptune", "district": "", "region": "NJ", "postcode": "07753", "id": null}, "geometry": {"type": "Point", "coordinates": [-74.0423749, 40.1873141]}}
{"type": "Feature", "properties": {"hash": "9f1a2380c69c3fdf", "number": "24", "street": "Chaucer Road", "unit": "", "city": "Manalapan", "district": "", "region": "NJ", "postcode": "07726", "id": null}, "geometry": {"type": "Point", "coordinates": [-74.3464628, 40.2952866]}}
{"type": "Feature", "properties": {"hash": "7f6fdb0b386913d6", "number": "23", "street": "Farm Tree Road", "unit": "", "city": "Manalapan", "district": "", "region": "NJ", "postcode": "07726", "id": null}, "geometry": {"type": "Point", "coordinates": [-74.3511901, 40.2953114]}}
{"type": "Feature", "properties": {"hash": "a2cca776f8d8bc44", "number": "5", "street": "Dortmunder Drive", "unit": "", "city": "Manalapan", "district": "", "region": "NJ", "postcode": "07726", "id": null}, "geometry": {"type": "Point", "coordinates": [-74.3573381, 40.3103055]}}
{"type": "Feature", "properties": {"hash": "aa2f38745dd6569a", "number": "221", "street": "Carton Avenue", "unit": "", "city": "Neptune", "district": "", "region": "NJ", "postcode": "07753", "id": null}, "geometry": {"type": "Point", "coordinates": [-74.0524749, 40.1991741]}}
{"type": "Feature", "properties": {"hash": "ddc1fbeffa10a226", "number": "226", "street": "Brighton Avenue", "unit": "", "city": "Neptune", "district": "", "region": "NJ", "postcode": "07753", "id": null}, "geometry": {"type": "Point", "coordinates": [-74.0540544, 40.1992565]}}
{"type": "Feature", "properties": {"hash": "e56ccb4259f33f1c", "number": "216", "street": "Brighton Avenue", "unit": "", "city": "Neptune", "district": "", "region": "NJ", "postcode": "07753", "id": null}, "geometry": {"type": "Point", "coordinates": [-74.0537788, 40.2000519]}}
{"type": "Feature", "properties": {"hash": "ea52ba3c6abddd75", "number": "214", "street": "Schock Avenue", "unit": "", "city": "Neptune", "district": "", "region": "NJ", "postcode": "07753", "id": null}, "geometry": {"type": "Point", "coordinates": [-74.0527044, 40.1998691]}}
{"type": "Feature", "properties": {"hash": "51d6e86a2ca41e7b", "number": "3", "street": "Turnberry Drive", "unit": "", "city": "Manalapan", "district": "", "region": "NJ", "postcode": "07726", "id": null}, "geometry": {"type": "Point", "coordinates": [-74.3764632, 40.2611458]}}
{"type": "Feature", "properties": {"hash": "a8c5a1bef129487b", "number": "16", "street": "Vought Avenue", "unit": "", "city": "Freehold", "district": "", "region": "NJ", "postcode": "07728", "id": null}, "geometry": {"type": "Point", "coordinates": [-74.2838459, 40.2619753]}}
{"type": "Feature", "properties": {"hash": "5ad04e7ff4c44514", "number": "105", "street": "Stokes Street", "unit": "", "city": "Freehold", "district": "", "region": "NJ", "postcode": "07728", "id": null}, "geometry": {"type": "Point", "coordinates": [-74.2912138, 40.2641486]}}
{"type": "Feature", "properties": {"hash": "56eccbb403d80aeb", "number": "7", "street": "Kingsley Way", "unit": "", "city": "Freehold", "district": "", "region": "NJ", "postcode": "07728", "id": null}, "geometry": {"type": "Point", "coordinates": [-74.2863978, 40.2620089]}}
{"type": "Feature", "properties": {"hash": "f5ee1d407980e706", "number": "18", "street": "Vought Avenue", "unit": "", "city": "Freehold", "district": "", "region": "NJ", "postcode": "07728", "id": null}, "geometry": {"type": "Point", "coordinates": [-74.2838765, 40.261841]}}
{"type": "Feature", "properties": {"hash": "b3e83e8d73cd188b", "number": "96", "street": "Court Street", "unit": "", "city": "Freehold", "district": "", "region": "NJ", "postcode": "07728", "id": null}, "geometry": {"type": "Point", "coordinates": [-74.2796983, 40.2642259]}}
{"type": "Feature", "properties": {"hash": "12cc6054fe81b0b2", "number": "21", "street": "Forge Court", "unit": "", "city": "Freehold", "district": "", "region": "NJ", "postcode": "07728", "id": null}, "geometry": {"type": "Point", "coordinates": [-74.3061065, 40.227247]}}
{"type": "Feature", "properties": {"hash": "55a8772ae367a39b", "number": "12", "street": "Yates Road", "unit": "", "city": "Manalapan", "district": "", "region": "NJ", "postcode": "07726", "id": null}, "geometry": {"type": "Point", "coordinates": [-74.3302608, 40.2571596]}}
{"type": "Feature", "properties": {"hash": "410a0c272320d168", "number": "6", "street": "Springhouse Circle", "unit": "", "city": "Manalapan", "district": "", "region": "NJ", "postcode": "07726", "id": null}, "geometry": {"type": "Point", "coordinates": [-74.3463751, 40.2682973]}}
{"type": "Feature", "properties": {"hash": "ce3819cbcd209de7", "number": "9", "street": "Springhouse Circle", "unit": "", "city": "Manalapan", "district": "", "region": "NJ", "postcode": "07726", "id": null}, "geometry": {"type": "Point", "coordinates": [-74.3465868, 40.2686924]}}
{"type": "Feature", "properties": {"hash": "6e197f1c4e08e11f", "number": "308", "street": "Tulip Lane", "unit": "", "city": "Freehold", "district": "", "region": "NJ", "postcode": "07728", "id": null}, "geometry": {"type": "Point", "coordinates": [-74.3073014, 40.2468853]}}
{"type": "Feature", "properties": {"hash": "d307d31083ae4acb", "number": "23", "street": "Rifkin Court", "unit": "", "city": "Manalapan", "district": "", "region": "NJ", "postcode": "07726", "id": null}, "geometry": {"type": "Point", "coordinates": [-74.3568607, 40.2229296]}}
{"type": "Feature", "properties": {"hash": "30015fd1da7a783c", "number": "54", "street": "Hedgerow Lane", "unit": "", "city": "Manalapan", "district": "", "region": "NJ", "postcode": "07726", "id": null}, "geometry": {"type": "Point", "coordinates": [-74.3323814, 40.2612288]}}
{"type": "Feature", "properties": {"hash": "ce464c0ef2328be7", "number": "16", "street": "Rifkin Court", "unit": "", "city": "Manalapan", "district": "", "region": "NJ", "postcode": "07726", "id": null}, "geometry": {"type": "Point", "coordinates": [-74.3590656, 40.2221027]}}
{"type": "Feature", "properties": {"hash": "e9a9cb3dc934dade", "number": "14", "street": "Rifkin Court", "unit": "", "city": "Manalapan", "district": "", "region": "NJ", "postcode": "07726", "id": null}, "geometry": {"type": "Point", "coordinates": [-74.3597266, 40.2221051]}}
{"type": "Feature", "properties": {"hash": "5279c036679daada", "number": "9", "street": "Cambridge Road", "unit": "", "city": "Freehold", "district": "", "region": "NJ", "postcode": "07728", "id": null}, "geometry": {"type": "Point", "coordinates": [-74.2914695, 40.2271124]}}
{"type": "Feature", "properties": {"hash": "d9504cc0adccbb79", "number": "27", "street": "Patten Street", "unit": "", "city": "Freehold", "district": "", "region": "NJ", "postcode": "07728", "id": null}, "geometry": {"type": "Point", "coordinates": [-74.2788932, 40.2468514]}}
{"type": "Feature", "properties": {"hash": "c999f38ed9372f22", "number": "49", "street": "Euretta Avenue", "unit": "", "city": "Freehold", "district": "", "region": "NJ", "postcode": "07728", "id": null}, "geometry": {"type": "Point", "coordinates": [-74.2774087, 40.2457391]}}
{"type": "Feature", "properties": {"hash": "b22b315b863d12cc", "number": "20", "street": "Windsor Terrace", "unit": "", "city": "Freehold", "district": "", "region": "NJ", "postcode": "07728", "id": null}, "geometry": {"type": "Point", "coordinates": [-74.27824, 40.2355605]}}
{"type": "Feature", "properties": {"hash": "cc8d65dce455b837", "number": "44", "street": "Moreau Avenue", "unit": "", "city": "Freehold", "district": "", "region": "NJ", "postcode": "07728", "id": null}, "geometry": {"type": "Point", "coordinates": [-74.2769922, 40.2445774]}}
{"type": "Feature", "properties": {"hash": "d3d9bb74ba9be5b0", "number": "55", "street": "Yorktowne Drive", "unit": "", "city": "Manalapan", "district": "", "region": "NJ", "postcode": "07726", "id": null}, "geometry": {"type": "Point", "coordinates": [-74.3312286, 40.3118328]}}
{"type": "Feature", "properties": {"hash": "a6ecfa87a0b5f1b4", "number": "5", "street": "Lancelot Road", "unit": "", "city": "Englishtown", "district": "", "region": "NJ", "postcode": "07726", "id": null}, "geometry": {"type": "Point", "coordinates": [-74.3206239, 40.3225446]}}
{"type": "Feature", "properties": {"hash": "9b6cd2e9abf73641", "number": "337", "street": "Union Hill Road", "unit": "", "city": "Manalapan", "district": "", "region": "NJ", "postcode": "07726", "id": null}, "geometry": {"type": "Point", "coordinates": [-74.3207401, 40.3353432]}}
{"type": "Feature", "properties": {"hash": "e3a2e3258ab9027f", "number": "17", "street": "Yorktowne Drive", "unit": "", "city": "Manalapan", "district": "", "region": "NJ", "postcode": "07726", "id": null}, "geometry": {"type": "Point", "coordinates": [-74.3271057, 40.3096972]}}
{"type": "Feature", "properties": {"hash": "1bedb6d69b91338e", "number": "4", "street": "Lancelot Road", "unit": "", "city": "Englishtown", "district": "", "region": "NJ", "postcode": "07726", "id": null}, "geometry": {"type": "Point", "coordinates": [-74.320509, 40.3232541]}}
{"type": "Feature", "properties": {"hash": "c9d5b04040abb0ae", "number": "37", "street": "Mulberry Drive", "unit": "", "city": "Manalapan", "district": "", "region": "NJ", "postcode": "07726", "id": null}, "geometry": {"type": "Point", "coordinates": [-74.3428549, 40.2698772]}}
{"type": "Feature", "properties": {"hash": "597d7c78c3e22c7b", "number": "49", "street": "South   Main Street", "unit": "", "city": "Allentown", "district": "", "region": "NJ", "postcode": "08501", "id": null}, "geometry": {"type": "Point", "coordinates": [-74.585788, 40.1762995]}}
{"type": "Feature", "properties": {"hash": "25dc702ddaddc141", "number": "51", "street": "South   Main Street", "unit": "", "city": "Allentown", "district": "", "region": "NJ", "postcode": "08501", "id": null}, "geometry": {"type": "Point", "coordinates": [-74.5858963, 40.1762156]}}
{"type": "Feature", "properties": {"hash": "9efcad7b3a8ed344", "number": "167", "street": "Overbrook Drive", "unit": "", "city": "Freehold", "district": "", "region": "NJ", "postcode": "07728", "id": null}, "geometry": {"type": "Point", "coordinates": [-74.2322588, 40.2781081]}}
{"type": "Feature", "properties": {"hash": "1e6b6bb7c37020de", "number": "79", "street": "Lincoln Avenue", "unit": "", "city": "Neptune", "district": "", "region": "NJ", "postcode": "07753", "id": null}, "geometry": {"type": "Point", "coordinates": [-74.0297011, 40.1956344]}}
{"type": "Feature", "properties": {"hash": "3c431d2d3dafc800", "number": "122", "street": "Inskip Avenue", "unit": "", "city": "Ocean Grove", "district": "", "region": "NJ", "postcode": "07756", "id": null}, "geometry": {"type": "Point", "coordinates": [-74.0133972, 40.2080665]}}
{"type": "Feature", "properties": {"hash": "d5194e1d06c0a033", "number": "24", "street": "Ocean Pathway", "unit": "", "city": "Ocean Grove", "district": "", "region": "NJ", "postcode": "07756", "id": null}, "geometry": {"type": "Point", "coordinates": [-74.0045206, 40.2132793]}}
{"type": "Feature", "properties": {"hash": "58e323e252543bc6", "number": "151", "street": "Fisher Avenue", "unit": "", "city": "Neptune", "district": "", "region": "NJ", "postcode": "07753", "id": null}, "geometry": {"type": "Point", "coordinates": [-74.0268373, 40.2118415]}}
{"type": "Feature", "properties": {"hash": "85b376c056920483", "number": "81", "street": "Lincoln Avenue", "unit": "", "city": "Neptune", "district": "", "region": "NJ", "postcode": "07753", "id": null}, "geometry": {"type": "Point", "coordinates": [-74.0298292, 40.1957346]}}
{"type": "Feature", "properties": {"hash": "60831aa30eff9107", "number": "77", "street": "Lincoln Avenue", "unit": "", "city": "Neptune", "district": "", "region": "NJ", "postcode": "07753", "id": null}, "geometry": {"type": "Point", "coordinates": [-74.0295393, 40.1955725]}}
{"type": "Feature", "properties": {"hash": "250d1060b1845d60", "number": "57", "street": "Laird Avenue", "unit": "", "city": "Neptune", "district": "", "region": "NJ", "postcode": "07753", "id": null}, "geometry": {"type": "Point", "coordinates": [-74.0235486, 40.1939064]}}
{"type": "Feature", "properties": {"hash": "29ebcc98803bd957", "number": "15", "street": "Cooper Hawk Drive", "unit": "", "city": "Manalapan", "district": "", "region": "NJ", "postcode": "07726", "id": null}, "geometry": {"type": "Point", "coordinates": [-74.3452757, 40.305573]}}
{"type": "Feature", "properties": {"hash": "bb48ad7c9c2971ea", "number": "16", "street": "Old Monmouth Road", "unit": "", "city": "Freehold", "district": "", "region": "NJ", "postcode": "07728", "id": null}, "geometry": {"type": "Point", "coordinates": [-74.2976204, 40.2702474]}}
{"type": "Feature", "properties": {"hash": "307c4e0549367ca4", "number": "250", "street": "Frankfort Avenue", "unit": "", "city": "Neptune", "district": "", "region": "NJ", "postcode": "07753", "id": null}, "geometry": {"type": "Point", "coordinates": [-74.0525313, 40.2166951]}}
{"type": "Feature", "properties": {"hash": "8b431b740372db57", "number": "77", "street": "County Route  537  West", "unit": "", "city": "Colts Neck", "district": "", "region": "NJ", "postcode": "07722", "id": null}, "geometry": {"type": "Point", "coordinates": [-74.1860227, 40.2840588]}}
{"type": "Feature", "properties": {"hash": "9c5e4b2aa3a45884", "number": "12", "street": "Bray Street", "unit": "", "city": "Colts Neck", "district": "", "region": "NJ", "postcode": "07722", "id": null}, "geometry": {"type": "Point", "coordinates": [-74.1909289, 40.3355852]}}
{"type": "Feature", "properties": {"hash": "e9bb5e1c07936513", "number": "9", "street": "Holling Road", "unit": "", "city": "Colts Neck", "district": "", "region": "NJ", "postcode": "07722", "id": null}, "geometry": {"type": "Point", "coordinates": [-74.1685617, 40.2919368]}}
{"type": "Feature", "properties": {"hash": "6d6e1e53f2e442d9", "number": "19", "street": "Rimwood Lane", "unit": "", "city": "Colts Neck", "district": "", "region": "NJ", "postcode": "07722", "id": null}, "geometry": {"type": "Point", "coordinates": [-74.1342767, 40.3133305]}}
{"type": "Feature", "properties": {"hash": "17ff97930a1c42ff", "number": "7", "street": "Deptford Court", "unit": "Unit 6", "city": "Freehold", "district": "", "region": "NJ", "postcode": "07728", "id": null}, "geometry": {"type": "Point", "coordinates": [-74.3181273, 40.2439723]}}
{"type": "Feature", "properties": {"hash": "6016f7249467f81f", "number": "3", "street": "Eastwick Court", "unit": "Unit 7", "city": "Freehold", "district": "", "region": "NJ", "postcode": "07728", "id": null}, "geometry": {"type": "Point", "coordinates": [-74.3187123, 40.245542]}}
{"type": "Feature", "properties": {"hash": "0a7ce2071a11d69a", "number": "37", "street": "Rachel Court", "unit": "Unit 10", "city": "Freehold", "district": "", "region": "NJ", "postcode": "07728", "id": null}, "geometry": {"type": "Point", "coordinates": [-74.319904, 40.2455445]}}
{"type": "Feature", "properties": {"hash": "9ea0cdd7ba2647aa", "number": "310", "street": "Washington Avenue", "unit": "", "city": "Avon By The Sea", "district": "", "region": "NJ", "postcode": "07717", "id": null}, "geometry": {"type": "Point", "coordinates": [-74.0170041, 40.1894819]}}
{"type": "Feature", "properties": {"hash": "f349b7bb315a1daf", "number": "16", "street": "Heritage Drive", "unit": "", "city": "Englishtown", "district": "", "region": "NJ", "postcode": "07726", "id": null}, "geometry": {"type": "Point", "coordinates": [-74.3631337, 40.2935864]}}
{"type": "Feature", "properties": {"hash": "1d6221a2f11c9211", "number": "82", "street": "Pagoda Lane", "unit": "", "city": "Freehold", "district": "", "region": "NJ", "postcode": "07728", "id": null}, "geometry": {"type": "Point", "coordinates": [-74.3099665, 40.2463538]}}
{"type": "Feature", "properties": {"hash": "d6977d97639638f6", "number": "90", "street": "Almond Road", "unit": "", "city": "Freehold", "district": "", "region": "NJ", "postcode": "07728", "id": null}, "geometry": {"type": "Point", "coordinates": [-74.3140786, 40.2462333]}}
{"type": "Feature", "properties": {"hash": "da3f8233f7454f23", "number": "81", "street": "Buttonwood Lane", "unit": "", "city": "Freehold", "district": "", "region": "NJ", "postcode": "07728", "id": null}, "geometry": {"type": "Point", "coordinates": [-74.3054168, 40.2374396]}}
{"type": "Feature", "properties": {"hash": "fb6f9fa3fdc7eb55", "number": "12", "street": "Victory Drive", "unit": "", "city": "Englishtown", "district": "", "region": "NJ", "postcode": "07726", "id": null}, "geometry": {"type": "Point", "coordinates": [-74.3560992, 40.2936887]}}
{"type": "Feature", "properties": {"hash": "1bec43f05d794275", "number": "11", "street": "Weamaconk Drive", "unit": "", "city": "Englishtown", "district": "", "region": "NJ", "postcode": "07726", "id": null}, "geometry": {"type": "Point", "coordinates": [-74.3555275, 40.2936979]}}
{"type": "Feature", "properties": {"hash": "df8571fdcea2439d", "number": "11", "street": "McDonald Way", "unit": "", "city": "Englishtown", "district": "", "region": "NJ", "postcode": "07726", "id": null}, "geometry": {"type": "Point", "coordinates": [-74.3543861, 40.2936427]}}
{"type": "Feature", "properties": {"hash": "d69c80a2e8885acb", "number": "25", "street": "Heritage Drive", "unit": "", "city": "Englishtown", "district": "", "region": "NJ", "postcode": "07726", "id": null}, "geometry": {"type": "Point", "coordinates": [-74.3643823, 40.2937209]}}
{"type": "Feature", "properties": {"hash": "ff98112be5a67065", "number": "23", "street": "Heritage Drive", "unit": "", "city": "Englishtown", "district": "", "region": "NJ", "postcode": "07726", "id": null}, "geometry": {"type": "Point", "coordinates": [-74.3641484, 40.2936165]}}
{"type": "Feature", "properties": {"hash": "52639111ba063214", "number": "320", "street": "Adams Court", "unit": "", "city": "Manalapan", "district": "", "region": "NJ", "postcode": "07726", "id": null}, "geometry": {"type": "Point", "coordinates": [-74.3155183, 40.283564]}}
{"type": "Feature", "properties": {"hash": "18394e53d4aad201", "number": "4", "street": "Yard Avenue", "unit": "", "city": "Freehold", "district": "", "region": "NJ", "postcode": "07728", "id": null}, "geometry": {"type": "Point", "coordinates": [-74.2827183, 40.2551137]}}
{"type": "Feature", "properties": {"hash": "e9ed70c4eab8f32c", "number": "316", "street": "Adams Court", "unit": "", "city": "Manalapan", "district": "", "region": "NJ", "postcode": "07726", "id": null}, "geometry": {"type": "Point", "coordinates": [-74.3147519, 40.283534]}}
{"type": "Feature", "properties": {"hash": "e67412deb9219b59", "number": "318", "street": "Adams Court", "unit": "", "city": "Manalapan", "district": "", "region": "NJ", "postcode": "07726", "id": null}, "geometry": {"type": "Point", "coordinates": [-74.3151679, 40.2835509]}}
{"type": "Feature", "properties": {"hash": "7882aea1fa545b88", "number": "23", "street": "Derry Meeting Drive", "unit": "", "city": "Manalapan", "district": "", "region": "NJ", "postcode": "07726", "id": null}, "geometry": {"type": "Point", "coordinates": [-74.3010024, 40.283541]}}
{"type": "Feature", "properties": {"hash": "0fbacbf40aac96c9", "number": "322", "street": "Adams Court", "unit": "", "city": "Manalapan", "district": "", "region": "NJ", "postcode": "07726", "id": null}, "geometry": {"type": "Point", "coordinates": [-74.3158697, 40.2835778]}}
{"type": "Feature", "properties": {"hash": "0400b39e650b352f", "number": "51", "street": "Outlook Lane", "unit": "", "city": "Freehold", "district": "", "region": "NJ", "postcode": "07728", "id": null}, "geometry": {"type": "Point", "coordinates": [-74.3135825, 40.2300769]}}
{"type": "Feature", "properties": {"hash": "bfd48c9128995482", "number": "200", "street": "Double Creek Parkway", "unit": "", "city": "Freehold", "district": "", "region": "NJ", "postcode": "07728", "id": null}, "geometry": {"type": "Point", "coordinates": [-74.3036961, 40.2301298]}}
{"type": "Feature", "properties": {"hash": "cb0675f0e303fde3", "number": "210", "street": "Double Creek Parkway", "unit": "", "city": "Freehold", "district": "", "region": "NJ", "postcode": "07728", "id": null}, "geometry": {"type": "Point", "coordinates": [-74.3041165, 40.2302226]}}
{"type": "Feature", "properties": {"hash": "f947326399f114fa", "number": "440", "street": "St Andrews Place", "unit": "", "city": "Manalapan", "district": "", "region": "NJ", "postcode": "07726", "id": null}, "geometry": {"type": "Point", "coordinates": [-74.3773429, 40.2648583]}}
{"type": "Feature", "properties": {"hash": "61c10e05c2aa53e7", "number": "912", "street": "Sunset Avenue", "unit": "", "city": "Asbury Park", "district": "", "region": "NJ", "postcode": "07712", "id": null}, "geometry": {"type": "Point", "coordinates": [-74.0120927, 40.2272489]}}
{"type": "Feature", "properties": {"hash": "1d45a669901e06c2", "number": "914", "street": "Sunset Avenue", "unit": "", "city": "Asbury Park", "district": "", "region": "NJ", "postcode": "07712", "id": null}, "geometry": {"type": "Point", "coordinates": [-74.0122824, 40.2273027]}}
{"type": "Feature", "properties": {"hash": "9c6a65642a27a002", "number": "916", "street": "Sunset Avenue", "unit": "", "city": "Asbury Park", "district": "", "region": "NJ", "postcode": "07712", "id": null}, "geometry": {"type": "Point", "coordinates": [-74.0125041, 40.227081]}}
{"type": "Feature", "properties": {"hash": "d871d317e309141d", "number": "441", "street": "St Andrews Place", "unit": "", "city": "Manalapan", "district": "", "region": "NJ", "postcode": "07726", "id": null}, "geometry": {"type": "Point", "coordinates": [-74.3772461, 40.2648696]}}
{"type": "Feature", "properties": {"hash": "8399bb6241bf01e8", "number": "267", "street": "State Highway  33", "unit": "", "city": "Manalapan", "district": "", "region": "NJ", "postcode": "07726", "id": null}, "geometry": {"type": "Point", "coordinates": [-74.3651307, 40.2532126]}}
{"type": "Feature", "properties": {"hash": "2dbcd29bd7a9ae2e", "number": "69", "street": "Wintergreen Drive", "unit": "", "city": "Manalapan", "district": "", "region": "NJ", "postcode": "07726", "id": null}, "geometry": {"type": "Point", "coordinates": [-74.3492356, 40.2648219]}}
{"type": "Feature", "properties": {"hash": "d50319bacdbb49b2", "number": "30", "street": "Shoemaker Road", "unit": "", "city": "Manalapan", "district": "", "region": "NJ", "postcode": "07726", "id": null}, "geometry": {"type": "Point", "coordinates": [-74.3507774, 40.2648746]}}
{"type": "Feature", "properties": {"hash": "ee4ae4cf2cb2fa77", "number": "59", "street": "Hance Road", "unit": "", "city": "Fair Haven", "district": "", "region": "NJ", "postcode": "07704", "id": null}, "geometry": {"type": "Point", "coordinates": [-74.0481431, 40.3631849]}}
{"type": "Feature", "properties": {"hash": "f88747e7e2a422fa", "number": "63", "street": "Hance Road", "unit": "", "city": "Fair Haven", "district": "", "region": "NJ", "postcode": "07704", "id": null}, "geometry": {"type": "Point", "coordinates": [-74.0472492, 40.3629347]}}
{"type": "Feature", "properties": {"hash": "dd553de279ae84cc", "number": "78", "street": "Players Circle", "unit": "", "city": "Tinton Falls", "district": "", "region": "NJ", "postcode": "07724", "id": null}, "geometry": {"type": "Point", "coordinates": [-74.0731715, 40.30673]}}
{"type": "Feature", "properties": {"hash": "ab90161ac0dc195b", "number": "28", "street": "Secretariat Court", "unit": "", "city": "Tinton Falls", "district": "", "region": "NJ", "postcode": "07724", "id": null}, "geometry": {"type": "Point", "coordinates": [-74.0723409, 40.3068926]}}
{"type": "Feature", "properties": {"hash": "c2c66323a70e607b", "number": "36", "street": "Secretariat Court", "unit": "", "city": "Tinton Falls", "district": "", "region": "NJ", "postcode": "07724", "id": null}, "geometry": {"type": "Point", "coordinates": [-74.0718838, 40.3069019]}}
{"type": "Feature", "properties": {"hash": "dff6e5306ee94b11", "number": "13", "street": "Ann Court", "unit": "", "city": "Tinton Falls", "district": "", "region": "NJ", "postcode": "07724", "id": null}, "geometry": {"type": "Point", "coordinates": [-74.0736714, 40.3177086]}}
{"type": "Feature", "properties": {"hash": "32f7fbdfc34ddd98", "number": "79", "street": "Players Circle", "unit": "", "city": "Tinton Falls", "district": "", "region": "NJ", "postcode": "07724", "id": null}, "geometry": {"type": "Point", "coordinates": [-74.073131, 40.3066964]}}
{"type": "Feature", "properties": {"hash": "6b65f930cce82f5f", "number": "45", "street": "Players Circle", "unit": "", "city": "Tinton Falls", "district": "", "region": "NJ", "postcode": "07724", "id": null}, "geometry": {"type": "Point", "coordinates": [-74.0749039, 40.3067435]}}
{"type": "Feature", "properties": {"hash": "f048ec61009bb8eb", "number": "44", "street": "Players Circle", "unit": "", "city": "Tinton Falls", "district": "", "region": "NJ", "postcode": "07724", "id": null}, "geometry": {"type": "Point", "coordinates": [-74.0748379, 40.3067275]}}
{"type": "Feature", "properties": {"hash": "a632c731d97ef8f1", "number": "82", "street": "Players Circle", "unit": "", "city": "Tinton Falls", "district": "", "region": "NJ", "postcode": "07724", "id": null}, "geometry": {"type": "Point", "coordinates": [-74.0732041, 40.3068044]}}
{"type": "Feature", "properties": {"hash": "1fa3ae33085da948", "number": "76", "street": "Glendale Drive", "unit": "", "city": "Freehold", "district": "", "region": "NJ", "postcode": "07728", "id": null}, "geometry": {"type": "Point", "coordinates": [-74.2750122, 40.2716389]}}
{"type": "Feature", "properties": {"hash": "f5e83ec1aa598186", "number": "13", "street": "Windham Way", "unit": "", "city": "Freehold", "district": "", "region": "NJ", "postcode": "07728", "id": null}, "geometry": {"type": "Point", "coordinates": [-74.2293343, 40.2744689]}}
{"type": "Feature", "properties": {"hash": "5a501f7518b8cf4a", "number": "43", "street": "Kinnoll Hill Court", "unit": "Unit 6", "city": "Freehold", "district": "", "region": "NJ", "postcode": "07728", "id": null}, "geometry": {"type": "Point", "coordinates": [-74.3203756, 40.244724]}}
{"type": "Feature", "properties": {"hash": "5c80a9c0d592b589", "number": "5", "street": "Claridge Court", "unit": "Unit 10", "city": "Freehold", "district": "", "region": "NJ", "postcode": "07728", "id": null}, "geometry": {"type": "Point", "coordinates": [-74.3181977, 40.2446866]}}
{"type": "Feature", "properties": {"hash": "68e51eb32e00a7da", "number": "43", "street": "Kinnoll Hill Court", "unit": "Unit 3", "city": "Freehold", "district": "", "region": "NJ", "postcode": "07728", "id": null}, "geometry": {"type": "Point", "coordinates": [-74.3201057, 40.2447326]}}
{"type": "Feature", "properties": {"hash": "af028d3671082f13", "number": "43", "street": "Kinnoll Hill Court", "unit": "Unit 7", "city": "Freehold", "district": "", "region": "NJ", "postcode": "07728", "id": null}, "geometry": {"type": "Point", "coordinates": [-74.3204484, 40.2447229]}}
{"type": "Feature", "properties": {"hash": "af57262399a97b3d", "number": "43", "street": "Kinnoll Hill Court", "unit": "Unit 4", "city": "Freehold", "district": "", "region": "NJ", "postcode": "07728", "id": null}, "geometry": {"type": "Point", "coordinates": [-74.3202035, 40.2447085]}}
{"type": "Feature", "properties": {"hash": "51e431a044501757", "number": "43", "street": "Kinnoll Hill Court", "unit": "Unit 9", "city": "Freehold", "district": "", "region": "NJ", "postcode": "07728", "id": null}, "geometry": {"type": "Point", "coordinates": [-74.3205842, 40.2447152]}}
{"type": "Feature", "properties": {"hash": "29b3cc4156c3806b", "number": "3", "street": "Country Club Lane", "unit": "", "city": "Colts Neck", "district": "", "region": "NJ", "postcode": "07722", "id": null}, "geometry": {"type": "Point", "coordinates": [-74.1808284, 40.2986762]}}
{"type": "Feature", "properties": {"hash": "42f3c827c622f443", "number": "1000", "street": "Bangs Avenue", "unit": "", "city": "Asbury Park", "district": "", "region": "NJ", "postcode": "07712", "id": null}, "geometry": {"type": "Point", "coordinates": [-74.0160243, 40.2178845]}}
{"type": "Feature", "properties": {"hash": "b8f4ab7d4f342a68", "number": "1033", "street": "Mattison Avenue", "unit": "", "city": "Asbury Park", "district": "", "region": "NJ", "postcode": "07712", "id": null}, "geometry": {"type": "Point", "coordinates": [-74.0175127, 40.2178343]}}
{"type": "Feature", "properties": {"hash": "50b05a823efa6ca7", "number": "8", "street": "Courtyard Lane", "unit": "", "city": "Brielle", "district": "", "region": "NJ", "postcode": "08730", "id": null}, "geometry": {"type": "Point", "coordinates": [-74.0600142, 40.1096073]}}
{"type": "Feature", "properties": {"hash": "a35079598a76395f", "number": "50", "street": "Maremanna Drive", "unit": "", "city": "Manalapan", "district": "", "region": "NJ", "postcode": "07726", "id": null}, "geometry": {"type": "Point", "coordinates": [-74.3484783, 40.2600767]}}
{"type": "Feature", "properties": {"hash": "69ae27dab6ac2128", "number": "6", "street": "Courtyard Lane", "unit": "", "city": "Brielle", "district": "", "region": "NJ", "postcode": "08730", "id": null}, "geometry": {"type": "Point", "coordinates": [-74.0602407, 40.1096099]}}
{"type": "Feature", "properties": {"hash": "e4683141f924896e", "number": "5", "street": "Courtyard Lane", "unit": "", "city": "Brielle", "district": "", "region": "NJ", "postcode": "08730", "id": null}, "geometry": {"type": "Point", "coordinates": [-74.0603139, 40.1095976]}}
{"type": "Feature", "properties": {"hash": "f9fb20c96bedf392", "number": "10", "street": "Courtyard Lane", "unit": "", "city": "Brielle", "district": "", "region": "NJ", "postcode": "08730", "id": null}, "geometry": {"type": "Point", "coordinates": [-74.05971, 40.109469]}}
{"type": "Feature", "properties": {"hash": "5f9dedad46d6095e", "number": "1411", "street": "Kingsley Street", "unit": "", "city": "Asbury Park", "district": "", "region": "NJ", "postcode": "07712", "id": null}, "geometry": {"type": "Point", "coordinates": [-74.000363, 40.2256168]}}
{"type": "Feature", "properties": {"hash": "e99d4e70d3edfb2a", "number": "117", "street": "Greenwood Drive", "unit": "", "city": "Freehold", "district": "", "region": "NJ", "postcode": "07728", "id": null}, "geometry": {"type": "Point", "coordinates": [-74.3085116, 40.2426635]}}
{"type": "Feature", "properties": {"hash": "d4cdc7c003f139b1", "number": "59", "street": "Poplar Place", "unit": "", "city": "Freehold", "district": "", "region": "NJ", "postcode": "07728", "id": null}, "geometry": {"type": "Point", "coordinates": [-74.3116168, 40.2426346]}}
{"type": "Feature", "properties": {"hash": "718795fa82b686e3", "number": "238", "street": "Daffodil Drive", "unit": "", "city": "Freehold", "district": "", "region": "NJ", "postcode": "07728", "id": null}, "geometry": {"type": "Point", "coordinates": [-74.3168764, 40.242639]}}
{"type": "Feature", "properties": {"hash": "2f5845a415004a9f", "number": "288", "street": "Fair Haven Road", "unit": "", "city": "Fair Haven", "district": "", "region": "NJ", "postcode": "07704", "id": null}, "geometry": {"type": "Point", "coordinates": [-74.0307328, 40.3591035]}}
{"type": "Feature", "properties": {"hash": "cd5fa4cee9bc6d74", "number": "209", "street": "Ticonderoga Boulevard", "unit": "", "city": "Freehold", "district": "", "region": "NJ", "postcode": "07728", "id": null}, "geometry": {"type": "Point", "coordinates": [-74.30544, 40.2276333]}}
{"type": "Feature", "properties": {"hash": "5a7240c5ae49cec3", "number": "10", "street": "North   Chaphagen Drive", "unit": "", "city": "Neptune", "district": "", "region": "NJ", "postcode": "07753", "id": null}, "geometry": {"type": "Point", "coordinates": [-74.0631887, 40.2242254]}}
{"type": "Feature", "properties": {"hash": "8d0188a660c7fd0f", "number": "2", "street": "Patricia Drive", "unit": "", "city": "Neptune", "district": "", "region": "NJ", "postcode": "07753", "id": null}, "geometry": {"type": "Point", "coordinates": [-74.0693775, 40.2242259]}}
{"type": "Feature", "properties": {"hash": "eb6833ac73f0a086", "number": "3", "street": "Norman Drive", "unit": "", "city": "Neptune", "district": "", "region": "NJ", "postcode": "07753", "id": null}, "geometry": {"type": "Point", "coordinates": [-74.0679344, 40.2241657]}}
{"type": "Feature", "properties": {"hash": "c3d4f9b6cee6f31d", "number": "39", "street": "Devon Court", "unit": "", "city": "Tinton Falls", "district": "", "region": "NJ", "postcode": "07724", "id": null}, "geometry": {"type": "Point", "coordinates": [-74.0834654, 40.3081083]}}
{"type": "Feature", "properties": {"hash": "9b27173bebff5d3a", "number": "2", "street": "Dawn Court", "unit": "", "city": "Tinton Falls", "district": "", "region": "NJ", "postcode": "07724", "id": null}, "geometry": {"type": "Point", "coordinates": [-74.075894, 40.3181609]}}
{"type": "Feature", "properties": {"hash": "f3c2cf40da1b0dcb", "number": "633", "street": "Rankin Road", "unit": "", "city": "Brielle", "district": "", "region": "NJ", "postcode": "08730", "id": null}, "geometry": {"type": "Point", "coordinates": [-74.0657676, 40.1090875]}}
{"type": "Feature", "properties": {"hash": "52115a8d420c6fd5", "number": "634", "street": "Rankin Road", "unit": "", "city": "Brielle", "district": "", "region": "NJ", "postcode": "08730", "id": null}, "geometry": {"type": "Point", "coordinates": [-74.064628, 40.1090476]}}
{"type": "Feature", "properties": {"hash": "fe07da165aeef4e4", "number": "908", "street": "Riverview Drive", "unit": "", "city": "Brielle", "district": "", "region": "NJ", "postcode": "08730", "id": null}, "geometry": {"type": "Point", "coordinates": [-74.0677346, 40.0990257]}}
{"type": "Feature", "properties": {"hash": "d1f860ed8de953c7", "number": "822", "street": "William Drive", "unit": "", "city": "Brielle", "district": "", "region": "NJ", "postcode": "08730", "id": null}, "geometry": {"type": "Point", "coordinates": [-74.0647943, 40.1080838]}}
{"type": "Feature", "properties": {"hash": "d82de4e17d61386e", "number": "4", "street": "Lakeview Terrace", "unit": "", "city": "Colts Neck", "district": "", "region": "NJ", "postcode": "07722", "id": null}, "geometry": {"type": "Point", "coordinates": [-74.1934888, 40.2989351]}}
{"type": "Feature", "properties": {"hash": "6b1e2eb55f728981", "number": "728", "street": "Franklin Street", "unit": "", "city": "Trenton", "district": "", "region": "NJ", "postcode": "08610", "id": null}, "geometry": {"type": "Point", "coordinates": [-74.7374273, 40.2084403]}}
{"type": "Feature", "properties": {"hash": "64de76932b396806", "number": "1147", "street": "Chambers Street", "unit": "", "city": "Trenton", "district": "", "region": "NJ", "postcode": "08610", "id": null}, "geometry": {"type": "Point", "coordinates": [-74.7369074, 40.2086047]}}
{"type": "Feature", "properties": {"hash": "c767ceeb1183742d", "number": "272", "street": "Morris Avenue", "unit": "", "city": "Trenton", "district": "", "region": "NJ", "postcode": "08611", "id": null}, "geometry": {"type": "Point", "coordinates": [-74.7426672, 40.2104024]}}
{"type": "Feature", "properties": {"hash": "168fbe996b054426", "number": "24", "street": "Klag Avenue", "unit": "", "city": "Trenton", "district": "", "region": "NJ", "postcode": "08638", "id": null}, "geometry": {"type": "Point", "coordinates": [-74.7429837, 40.2354481]}}
{"type": "Feature", "properties": {"hash": "d76571a07293f2af", "number": "51", "street": "Adeline Street", "unit": "", "city": "Trenton", "district": "", "region": "NJ", "postcode": "08611", "id": null}, "geometry": {"type": "Point", "coordinates": [-74.7525485, 40.2070414]}}
{"type": "Feature", "properties": {"hash": "84036f9abf21da3f", "number": "49", "street": "Adeline Street", "unit": "", "city": "Trenton", "district": "", "region": "NJ", "postcode": "08611", "id": null}, "geometry": {"type": "Point", "coordinates": [-74.7525856, 40.2070941]}}
{"type": "Feature", "properties": {"hash": "2fdd2487e0266122", "number": "47", "street": "Adeline Street", "unit": "", "city": "Trenton", "district": "", "region": "NJ", "postcode": "08611", "id": null}, "geometry": {"type": "Point", "coordinates": [-74.7526358, 40.2071159]}}
{"type": "Feature", "properties": {"hash": "efdbbdfe17396c5d", "number": "45", "street": "Adeline Street", "unit": "", "city": "Trenton", "district": "", "region": "NJ", "postcode": "08611", "id": null}, "geometry": {"type": "Point", "coordinates": [-74.7527042, 40.2071261]}}
{"type": "Feature", "properties": {"hash": "ac3363415eeaaf7c", "number": "227", "street": "Grand Street", "unit": "", "city": "Trenton", "district": "", "region": "NJ", "postcode": "08611", "id": null}, "geometry": {"type": "Point", "coordinates": [-74.7485852, 40.2045504]}}
{"type": "Feature", "properties": {"hash": "2ba93c4086344e29", "number": "11", "street": "Orchard Hill Drive", "unit": "", "city": "Manalapan", "district": "", "region": "NJ", "postcode": "07726", "id": null}, "geometry": {"type": "Point", "coordinates": [-74.3404288, 40.2347755]}}
{"type": "Feature", "properties": {"hash": "d37e172ad1351ffb", "number": "21", "street": "West   Jumping Brook Road", "unit": "", "city": "Neptune", "district": "", "region": "NJ", "postcode": "07753", "id": null}, "geometry": {"type": "Point", "coordinates": [-74.0895766, 40.2129504]}}
{"type": "Feature", "properties": {"hash": "ca39a5525680c4db", "number": "845", "street": "William Drive", "unit": "", "city": "Brielle", "district": "", "region": "NJ", "postcode": "08730", "id": null}, "geometry": {"type": "Point", "coordinates": [-74.0691391, 40.1083175]}}
{"type": "Feature", "properties": {"hash": "ba32ec5eb79d59b6", "number": "639", "street": "Agnes Avenue", "unit": "", "city": "Brielle", "district": "", "region": "NJ", "postcode": "08730", "id": null}, "geometry": {"type": "Point", "coordinates": [-74.0570251, 40.1176687]}}
{"type": "Feature", "properties": {"hash": "909464bc2abe0413", "number": "405", "street": "Union Avenue", "unit": "", "city": "Brielle", "district": "", "region": "NJ", "postcode": "08730", "id": null}, "geometry": {"type": "Point", "coordinates": [-74.056324, 40.1136226]}}
{"type": "Feature", "properties": {"hash": "4c7112a3a3cf7cf4", "number": "635", "street": "Valley Road", "unit": "", "city": "Brielle", "district": "", "region": "NJ", "postcode": "08730", "id": null}, "geometry": {"type": "Point", "coordinates": [-74.0740766, 40.1007161]}}
{"type": "Feature", "properties": {"hash": "ed632a69c2287aed", "number": "56", "street": "Pagoda Lane", "unit": "", "city": "Freehold", "district": "", "region": "NJ", "postcode": "07728", "id": null}, "geometry": {"type": "Point", "coordinates": [-74.3091747, 40.2455281]}}
{"type": "Feature", "properties": {"hash": "063be508f1bc1d29", "number": "1", "street": "Amherst Court", "unit": "Unit 9", "city": "Freehold", "district": "", "region": "NJ", "postcode": "07728", "id": null}, "geometry": {"type": "Point", "coordinates": [-74.3187966, 40.246086]}}
{"type": "Feature", "properties": {"hash": "212e2df3261705ad", "number": "46", "street": "Tulip Lane", "unit": "", "city": "Freehold", "district": "", "region": "NJ", "postcode": "07728", "id": null}, "geometry": {"type": "Point", "coordinates": [-74.3080408, 40.2465164]}}
{"type": "Feature", "properties": {"hash": "931098c4cf80b714", "number": "47", "street": "Tulip Lane", "unit": "", "city": "Freehold", "district": "", "region": "NJ", "postcode": "07728", "id": null}, "geometry": {"type": "Point", "coordinates": [-74.30796, 40.2465309]}}
{"type": "Feature", "properties": {"hash": "0be58c6147369899", "number": "48", "street": "Tulip Lane", "unit": "", "city": "Freehold", "district": "", "region": "NJ", "postcode": "07728", "id": null}, "geometry": {"type": "Point", "coordinates": [-74.3079493, 40.2464816]}}
{"type": "Feature", "properties": {"hash": "179cd29ca6652df8", "number": "609", "street": "Asbury Avenue", "unit": "", "city": "Asbury Park", "district": "", "region": "NJ", "postcode": "07712", "id": null}, "geometry": {"type": "Point", "coordinates": [-74.0097623, 40.2202871]}}
{"type": "Feature", "properties": {"hash": "553bbe9b7f9a5f5a", "number": "407", "street": "Lake Avenue", "unit": "", "city": "Asbury Park", "district": "", "region": "NJ", "postcode": "07712", "id": null}, "geometry": {"type": "Point", "coordinates": [-74.0070485, 40.2168703]}}
{"type": "Feature", "properties": {"hash": "8353570c18d35b24", "number": "140", "street": "Ely Harmony Road", "unit": "", "city": "Freehold", "district": "", "region": "NJ", "postcode": "07728", "id": null}, "geometry": {"type": "Point", "coordinates": [-74.3136841, 40.1762355]}}
{"type": "Feature", "properties": {"hash": "ec2c0d0d774ea20c", "number": "200", "street": "Ely Harmony Road", "unit": "", "city": "Freehold", "district": "", "region": "NJ", "postcode": "07728", "id": null}, "geometry": {"type": "Point", "coordinates": [-74.3242038, 40.1804599]}}
{"type": "Feature", "properties": {"hash": "16339fc4a7b72579", "number": "364", "street": "Main Street", "unit": "", "city": "Manalapan", "district": "", "region": "NJ", "postcode": "07726", "id": null}, "geometry": {"type": "Point", "coordinates": [-74.340277, 40.2759077]}}
{"type": "Feature", "properties": {"hash": "4b1e2ff93c768249", "number": "159", "street": "Cherry Tree Court", "unit": "", "city": "Freehold", "district": "", "region": "NJ", "postcode": "07728", "id": null}, "geometry": {"type": "Point", "coordinates": [-74.3135866, 40.2412564]}}
{"type": "Feature", "properties": {"hash": "bc2d88cad7d04401", "number": "14", "street": "Lincolnshire Drive", "unit": "", "city": "Manalapan", "district": "", "region": "NJ", "postcode": "07726", "id": null}, "geometry": {"type": "Point", "coordinates": [-74.3089851, 40.2926927]}}
{"type": "Feature", "properties": {"hash": "f8d09f551b23b7f0", "number": "158", "street": "Cherry Tree Court", "unit": "", "city": "Freehold", "district": "", "region": "NJ", "postcode": "07728", "id": null}, "geometry": {"type": "Point", "coordinates": [-74.3137278, 40.2411948]}}
{"type": "Feature", "properties": {"hash": "03d81f3329fb3bf2", "number": "167", "street": "Loganberry Lane", "unit": "", "city": "Freehold", "district": "", "region": "NJ", "postcode": "07728", "id": null}, "geometry": {"type": "Point", "coordinates": [-74.312784, 40.2412731]}}
{"type": "Feature", "properties": {"hash": "ef4d852ebb6de7d2", "number": "168", "street": "Loganberry Lane", "unit": "", "city": "Freehold", "district": "", "region": "NJ", "postcode": "07728", "id": null}, "geometry": {"type": "Point", "coordinates": [-74.3129344, 40.2412161]}}
{"type": "Feature", "properties": {"hash": "70d2ee01a7db1a24", "number": "83", "street": "West   Canadian Woods Road", "unit": "", "city": "Manalapan", "district": "", "region": "NJ", "postcode": "07726", "id": null}, "geometry": {"type": "Point", "coordinates": [-74.2934777, 40.3191256]}}
{"type": "Feature", "properties": {"hash": "d83344a223763813", "number": "11", "street": "Forman Lane", "unit": "", "city": "Manalapan", "district": "", "region": "NJ", "postcode": "07726", "id": null}, "geometry": {"type": "Point", "coordinates": [-74.2931116, 40.2967413]}}
{"type": "Feature", "properties": {"hash": "1234692e9e1f917d", "number": "51", "street": "Concord Drive", "unit": "", "city": "Freehold", "district": "", "region": "NJ", "postcode": "07728", "id": null}, "geometry": {"type": "Point", "coordinates": [-74.2931823, 40.2894996]}}
{"type": "Feature", "properties": {"hash": "045be5fd7a4c8646", "number": "1920", "street": "West   Lake Avenue", "unit": "", "city": "Neptune", "district": "", "region": "NJ", "postcode": "07753", "id": null}, "geometry": {"type": "Point", "coordinates": [-74.0324946, 40.215684]}}
{"type": "Feature", "properties": {"hash": "c30df23a1b80bbda", "number": "4", "street": "Allen Drive", "unit": "", "city": "Allentown", "district": "", "region": "NJ", "postcode": "08501", "id": null}, "geometry": {"type": "Point", "coordinates": [-74.5809141, 40.1812081]}}
{"type": "Feature", "properties": {"hash": "96800af9f1476f8f", "number": "10", "street": "Cotswold Circle", "unit": "", "city": "Manalapan", "district": "", "region": "NJ", "postcode": "07726", "id": null}, "geometry": {"type": "Point", "coordinates": [-74.3026579, 40.2836878]}}
{"type": "Feature", "properties": {"hash": "35cc1eac55001633", "number": "4", "street": "Eliot Road", "unit": "", "city": "Manalapan", "district": "", "region": "NJ", "postcode": "07726", "id": null}, "geometry": {"type": "Point", "coordinates": [-74.3416429, 40.2956578]}}
{"type": "Feature", "properties": {"hash": "71f0109c646523dc", "number": "12", "street": "Allen Drive", "unit": "", "city": "Allentown", "district": "", "region": "NJ", "postcode": "08501", "id": null}, "geometry": {"type": "Point", "coordinates": [-74.5815717, 40.1821148]}}
{"type": "Feature", "properties": {"hash": "aef927672e9742ce", "number": "17", "street": "Bloomfield Road", "unit": "", "city": "Manalapan", "district": "", "region": "NJ", "postcode": "07726", "id": null}, "geometry": {"type": "Point", "coordinates": [-74.3369262, 40.2731148]}}
{"type": "Feature", "properties": {"hash": "b49a5820b985422a", "number": "19", "street": "Bloomfield Road", "unit": "", "city": "Manalapan", "district": "", "region": "NJ", "postcode": "07726", "id": null}, "geometry": {"type": "Point", "coordinates": [-74.3366028, 40.273174]}}
{"type": "Feature", "properties": {"hash": "05d5e6dcfc34761c", "number": "124", "street": "North   Parsonage Way", "unit": "", "city": "Manalapan", "district": "", "region": "NJ", "postcode": "07726", "id": null}, "geometry": {"type": "Point", "coordinates": [-74.3376946, 40.2713071]}}
{"type": "Feature", "properties": {"hash": "74e1118318e33a5a", "number": "8", "street": "Elm Lane", "unit": "", "city": "Manalapan", "district": "", "region": "NJ", "postcode": "07726", "id": null}, "geometry": {"type": "Point", "coordinates": [-74.3467689, 40.2692778]}}
{"type": "Feature", "properties": {"hash": "60c5b41c96f9fae0", "number": "48", "street": "Hampton Drive", "unit": "", "city": "Freehold", "district": "", "region": "NJ", "postcode": "07728", "id": null}, "geometry": {"type": "Point", "coordinates": [-74.283622, 40.2255721]}}
{"type": "Feature", "properties": {"hash": "a7db5745014d76f9", "number": "46", "street": "Oak Leaf Lane", "unit": "", "city": "Tinton Falls", "district": "", "region": "NJ", "postcode": "07712", "id": null}, "geometry": {"type": "Point", "coordinates": [-74.093683, 40.2545243]}}
{"type": "Feature", "properties": {"hash": "86c72e8c8b6af172", "number": "30", "street": "Santa Rosa Lane", "unit": "", "city": "Tinton Falls", "district": "", "region": "NJ", "postcode": "07753", "id": null}, "geometry": {"type": "Point", "coordinates": [-74.0999712, 40.2422312]}}
{"type": "Feature", "properties": {"hash": "b4656e168ef42e7e", "number": "26", "street": "Santa Rosa Lane", "unit": "", "city": "Tinton Falls", "district": "", "region": "NJ", "postcode": "07753", "id": null}, "geometry": {"type": "Point", "coordinates": [-74.1001172, 40.2423044]}}
{"type": "Feature", "properties": {"hash": "41aea42db5a80167", "number": "20", "street": "Santa Rosa Lane", "unit": "", "city": "Tinton Falls", "district": "", "region": "NJ", "postcode": "07753", "id": null}, "geometry": {"type": "Point", "coordinates": [-74.1003323, 40.2424124]}}
{"type": "Feature", "properties": {"hash": "0b39da743cee6b3e", "number": "50", "street": "Oak Leaf Lane", "unit": "", "city": "Tinton Falls", "district": "", "region": "NJ", "postcode": "07712", "id": null}, "geometry": {"type": "Point", "coordinates": [-74.0937712, 40.2545614]}}
{"type": "Feature", "properties": {"hash": "22b1739b7af0bd69", "number": "27", "street": "Oak Leaf Lane", "unit": "", "city": "Tinton Falls", "district": "", "region": "NJ", "postcode": "07712", "id": null}, "geometry": {"type": "Point", "coordinates": [-74.0930015, 40.2547042]}}
{"type": "Feature", "properties": {"hash": "8bea1bb098a02cae", "number": "23", "street": "Oak Leaf Lane", "unit": "", "city": "Tinton Falls", "district": "", "region": "NJ", "postcode": "07712", "id": null}, "geometry": {"type": "Point", "coordinates": [-74.0930842, 40.2547417]}}
{"type": "Feature", "properties": {"hash": "e34d3ffd606dfc15", "number": "107", "street": "Riverview Avenue", "unit": "Unit 157B", "city": "Neptune", "district": "", "region": "NJ", "postcode": "07753", "id": null}, "geometry": {"type": "Point", "coordinates": [-74.0324614, 40.1965872]}}
{"type": "Feature", "properties": {"hash": "2f2d4ec98d1b91d3", "number": "107", "street": "Riverview Avenue", "unit": "Unit 156C", "city": "Neptune", "district": "", "region": "NJ", "postcode": "07753", "id": null}, "geometry": {"type": "Point", "coordinates": [-74.0333367, 40.1966002]}}
{"type": "Feature", "properties": {"hash": "4ad2068f69857f23", "number": "107", "street": "Riverview Avenue", "unit": "Unit 155B", "city": "Neptune", "district": "", "region": "NJ", "postcode": "07753", "id": null}, "geometry": {"type": "Point", "coordinates": [-74.0332425, 40.1966351]}}
{"type": "Feature", "properties": {"hash": "6b78e76c2934e9d8", "number": "52", "street": "Hampton Drive", "unit": "", "city": "Freehold", "district": "", "region": "NJ", "postcode": "07728", "id": null}, "geometry": {"type": "Point", "coordinates": [-74.2838489, 40.2244957]}}
{"type": "Feature", "properties": {"hash": "9bf0533dfd5c65e6", "number": "19", "street": "Stokes Street", "unit": "", "city": "Freehold", "district": "", "region": "NJ", "postcode": "07728", "id": null}, "geometry": {"type": "Point", "coordinates": [-74.2807457, 40.2598541]}}
{"type": "Feature", "properties": {"hash": "ccf40d0b856a1207", "number": "20", "street": "Coventry Drive", "unit": "", "city": "Freehold", "district": "", "region": "NJ", "postcode": "07728", "id": null}, "geometry": {"type": "Point", "coordinates": [-74.2866966, 40.2244082]}}
{"type": "Feature", "properties": {"hash": "a7fa7e658d2ff89f", "number": "20", "street": "Buckingham Way", "unit": "", "city": "Freehold", "district": "", "region": "NJ", "postcode": "07728", "id": null}, "geometry": {"type": "Point", "coordinates": [-74.2901141, 40.2243325]}}
{"type": "Feature", "properties": {"hash": "420ddf0ac85a87dd", "number": "136", "street": "Lancaster Road", "unit": "", "city": "Freehold", "district": "", "region": "NJ", "postcode": "07728", "id": null}, "geometry": {"type": "Point", "coordinates": [-74.2916998, 40.2243837]}}
{"type": "Feature", "properties": {"hash": "0c440eba36505721", "number": "185", "street": "Newman Springs Road", "unit": "", "city": "Tinton Falls", "district": "", "region": "NJ", "postcode": "07724", "id": null}, "geometry": {"type": "Point", "coordinates": [-74.0831557, 40.3363801]}}
{"type": "Feature", "properties": {"hash": "1d60c807e9bdf896", "number": "175", "street": "Newman Springs Road", "unit": "", "city": "Tinton Falls", "district": "", "region": "NJ", "postcode": "07724", "id": null}, "geometry": {"type": "Point", "coordinates": [-74.082517, 40.3365141]}}
{"type": "Feature", "properties": {"hash": "e3c5f978d1b979e1", "number": "171", "street": "Newman Springs Road", "unit": "", "city": "Tinton Falls", "district": "", "region": "NJ", "postcode": "07724", "id": null}, "geometry": {"type": "Point", "coordinates": [-74.0823433, 40.3365378]}}
{"type": "Feature", "properties": {"hash": "58552705048d88b6", "number": "167", "street": "Newman Springs Road", "unit": "", "city": "Tinton Falls", "district": "", "region": "NJ", "postcode": "07724", "id": null}, "geometry": {"type": "Point", "coordinates": [-74.082165, 40.3365154]}}
{"type": "Feature", "properties": {"hash": "1b40ac8e1b44ddc5", "number": "6", "street": "Enright Avenue", "unit": "", "city": "Freehold", "district": "", "region": "NJ", "postcode": "07728", "id": null}, "geometry": {"type": "Point", "coordinates": [-74.2843926, 40.2527041]}}
{"type": "Feature", "properties": {"hash": "35c0e9866686bed1", "number": "41", "street": "Oak Knoll Drive", "unit": "", "city": "Matawan", "district": "", "region": "NJ", "postcode": "07747", "id": null}, "geometry": {"type": "Point", "coordinates": [-74.2283322, 40.4260025]}}
{"type": "Feature", "properties": {"hash": "a9ee3854c1853699", "number": "23", "street": "Somerset Place", "unit": "", "city": "Matawan", "district": "", "region": "NJ", "postcode": "07747", "id": null}, "geometry": {"type": "Point", "coordinates": [-74.2350773, 40.3951322]}}
{"type": "Feature", "properties": {"hash": "9fba54527967c233", "number": "2", "street": "Church Street", "unit": "", "city": "Matawan", "district": "", "region": "NJ", "postcode": "07747", "id": null}, "geometry": {"type": "Point", "coordinates": [-74.2348985, 40.4120943]}}
{"type": "Feature", "properties": {"hash": "b2fc70c26711ef78", "number": "433", "street": "Whittaker Avenue", "unit": "", "city": "Trenton", "district": "", "region": "NJ", "postcode": "08611", "id": null}, "geometry": {"type": "Point", "coordinates": [-74.7485029, 40.2111301]}}
{"type": "Feature", "properties": {"hash": "3de6337befe0ec0d", "number": "530", "street": "Hudson Street", "unit": "", "city": "Trenton", "district": "", "region": "NJ", "postcode": "08611", "id": null}, "geometry": {"type": "Point", "coordinates": [-74.749751, 40.2111088]}}
{"type": "Feature", "properties": {"hash": "33a09751be18f18c", "number": "229", "street": "Grand Street", "unit": "", "city": "Trenton", "district": "", "region": "NJ", "postcode": "08611", "id": null}, "geometry": {"type": "Point", "coordinates": [-74.7485215, 40.2045419]}}
{"type": "Feature", "properties": {"hash": "2b3dac5490c21321", "number": "863", "street": "East   State Street", "unit": "", "city": "Trenton", "district": "", "region": "NJ", "postcode": "08609", "id": null}, "geometry": {"type": "Point", "coordinates": [-74.7454204, 40.2234814]}}
{"type": "Feature", "properties": {"hash": "1c7777e5902316e4", "number": "831", "street": "Spruce Street", "unit": "", "city": "Trenton", "district": "", "region": "NJ", "postcode": "08638", "id": null}, "geometry": {"type": "Point", "coordinates": [-74.7495202, 40.2401809]}}
{"type": "Feature", "properties": {"hash": "783924c99a49df3c", "number": "302", "street": "Home Avenue", "unit": "", "city": "Trenton", "district": "", "region": "NJ", "postcode": "08611", "id": null}, "geometry": {"type": "Point", "coordinates": [-74.7481337, 40.2032736]}}
{"type": "Feature", "properties": {"hash": "5e5f8497860f9b00", "number": "1612", "street": "Chestnut Avenue", "unit": "", "city": "Trenton", "district": "", "region": "NJ", "postcode": "08611", "id": null}, "geometry": {"type": "Point", "coordinates": [-74.7473706, 40.203328]}}
{"type": "Feature", "properties": {"hash": "4563b1d0ab74816c", "number": "17", "street": "Barnt Avenue", "unit": "", "city": "Trenton", "district": "", "region": "NJ", "postcode": "08611", "id": null}, "geometry": {"type": "Point", "coordinates": [-74.7468186, 40.2033574]}}
{"type": "Feature", "properties": {"hash": "23654416586ad2a8", "number": "149", "street": "Ashmore Avenue", "unit": "", "city": "Trenton", "district": "", "region": "NJ", "postcode": "08611", "id": null}, "geometry": {"type": "Point", "coordinates": [-74.7426874, 40.2092915]}}
{"type": "Feature", "properties": {"hash": "a335aa05dbae50e9", "number": "1028", "street": "Ohio Avenue", "unit": "", "city": "Ewing", "district": "", "region": "NJ", "postcode": "08638", "id": null}, "geometry": {"type": "Point", "coordinates": [-74.7437487, 40.2407945]}}
{"type": "Feature", "properties": {"hash": "dab5337f8af73fdb", "number": "1030", "street": "Ohio Avenue", "unit": "", "city": "Ewing", "district": "", "region": "NJ", "postcode": "08638", "id": null}, "geometry": {"type": "Point", "coordinates": [-74.7436958, 40.2408004]}}
{"type": "Feature", "properties": {"hash": "d3c1a2b13ebf5368", "number": "937", "street": "Indiana Avenue", "unit": "", "city": "Trenton", "district": "", "region": "NJ", "postcode": "08638", "id": null}, "geometry": {"type": "Point", "coordinates": [-74.7456593, 40.2408733]}}
{"type": "Feature", "properties": {"hash": "67802962fc0ee65f", "number": "820", "street": "Spruce Street", "unit": "", "city": "Trenton", "district": "", "region": "NJ", "postcode": "08638", "id": null}, "geometry": {"type": "Point", "coordinates": [-74.7483181, 40.2394922]}}
{"type": "Feature", "properties": {"hash": "8d41512100ffd5fd", "number": "818", "street": "Spruce Street", "unit": "", "city": "Trenton", "district": "", "region": "NJ", "postcode": "08638", "id": null}, "geometry": {"type": "Point", "coordinates": [-74.7482304, 40.239429]}}
{"type": "Feature", "properties": {"hash": "69ccc4171bc4fa41", "number": "854", "street": "Indiana Avenue", "unit": "", "city": "Trenton", "district": "", "region": "NJ", "postcode": "08638", "id": null}, "geometry": {"type": "Point", "coordinates": [-74.7469379, 40.2395687]}}
{"type": "Feature", "properties": {"hash": "5b2a2f4436d5e9d0", "number": "713", "street": "Pine Street", "unit": "", "city": "Trenton", "district": "", "region": "NJ", "postcode": "08638", "id": null}, "geometry": {"type": "Point", "coordinates": [-74.7463047, 40.2395893]}}
{"type": "Feature", "properties": {"hash": "e5ae0dc7e9671820", "number": "1416", "street": "Greenwood Avenue", "unit": "", "city": "Trenton", "district": "", "region": "NJ", "postcode": "08609", "id": null}, "geometry": {"type": "Point", "coordinates": [-74.7347062, 40.2254773]}}
{"type": "Feature", "properties": {"hash": "ab976a223be9d235", "number": "2751", "street": "Princeton Pike", "unit": "", "city": "Lawrenceville", "district": "", "region": "NJ", "postcode": "08648", "id": null}, "geometry": {"type": "Point", "coordinates": [-74.7241774, 40.2711698]}}
{"type": "Feature", "properties": {"hash": "4074e09738e79797", "number": "757", "street": "Valley Forge Avenue", "unit": "", "city": "Lawrence Township", "district": "", "region": "NJ", "postcode": "08648", "id": null}, "geometry": {"type": "Point", "coordinates": [-74.7359535, 40.249316]}}
{"type": "Feature", "properties": {"hash": "3cbe234031dd0450", "number": "85", "street": "Gainsboro Road", "unit": "", "city": "Lawrence Township", "district": "", "region": "NJ", "postcode": "08648", "id": null}, "geometry": {"type": "Point", "coordinates": [-74.7363544, 40.2628501]}}
{"type": "Feature", "properties": {"hash": "ae5a9deec074ef4b", "number": "321", "street": "Johnson Avenue", "unit": "", "city": "Lawrence Township", "district": "", "region": "NJ", "postcode": "08648", "id": null}, "geometry": {"type": "Point", "coordinates": [-74.7520249, 40.2711393]}}
{"type": "Feature", "properties": {"hash": "0c80956b648de87d", "number": "156", "street": "Glenview Drive", "unit": "", "city": "Lawrence Township", "district": "", "region": "NJ", "postcode": "08648", "id": null}, "geometry": {"type": "Point", "coordinates": [-74.7221476, 40.2528391]}}
{"type": "Feature", "properties": {"hash": "8820f4611f775264", "number": "59", "street": "Vermont Street", "unit": "", "city": "Lawrence Township", "district": "", "region": "NJ", "postcode": "08648", "id": null}, "geometry": {"type": "Point", "coordinates": [-74.7485454, 40.2428422]}}
{"type": "Feature", "properties": {"hash": "a2747d985193f736", "number": "98", "street": "Birchwood Knoll", "unit": "", "city": "Lawrence Township", "district": "", "region": "NJ", "postcode": "08648", "id": null}, "geometry": {"type": "Point", "coordinates": [-74.7323887, 40.2702896]}}
{"type": "Feature", "properties": {"hash": "0c66396a2e36c3f5", "number": "105", "street": "Birchwood Knoll", "unit": "", "city": "Lawrence Township", "district": "", "region": "NJ", "postcode": "08648", "id": null}, "geometry": {"type": "Point", "coordinates": [-74.7326077, 40.2708425]}}
{"type": "Feature", "properties": {"hash": "7a6cc78ec1a2bf50", "number": "21", "street": "East   Brook Drive", "unit": "", "city": "Holmdel", "district": "", "region": "NJ", "postcode": "07733", "id": null}, "geometry": {"type": "Point", "coordinates": [-74.1678674, 40.4056744]}}
{"type": "Feature", "properties": {"hash": "39481c6c852d4d09", "number": "32", "street": "Twinoak Avenue", "unit": "", "city": "Middletown", "district": "", "region": "NJ", "postcode": "07748", "id": null}, "geometry": {"type": "Point", "coordinates": [-74.1133592, 40.4054928]}}
{"type": "Feature", "properties": {"hash": "8d71bd16eed402fc", "number": "12", "street": "Crescent Road", "unit": "", "city": "Holmdel", "district": "", "region": "NJ", "postcode": "07733", "id": null}, "geometry": {"type": "Point", "coordinates": [-74.181541, 40.4057226]}}
{"type": "Feature", "properties": {"hash": "f4b78516584219de", "number": "15", "street": "Hidden Hollow Terrace", "unit": "", "city": "Holmdel", "district": "", "region": "NJ", "postcode": "07733", "id": null}, "geometry": {"type": "Point", "coordinates": [-74.1652414, 40.405627]}}
{"type": "Feature", "properties": {"hash": "62670d36475ca2a0", "number": "51", "street": "Queens Drive", "unit": "", "city": "Little Silver", "district": "", "region": "NJ", "postcode": "07739", "id": null}, "geometry": {"type": "Point", "coordinates": [-74.0382138, 40.3399498]}}
{"type": "Feature", "properties": {"hash": "0c43a670b6111ace", "number": "32", "street": "Church Street", "unit": "", "city": "Little Silver", "district": "", "region": "NJ", "postcode": "07739", "id": null}, "geometry": {"type": "Point", "coordinates": [-74.0410114, 40.3398545]}}
{"type": "Feature", "properties": {"hash": "a3a12dc52e549307", "number": "46", "street": "Silverton Avenue", "unit": "", "city": "Little Silver", "district": "", "region": "NJ", "postcode": "07739", "id": null}, "geometry": {"type": "Point", "coordinates": [-74.0490634, 40.3400052]}}
{"type": "Feature", "properties": {"hash": "0d8cf07788df4829", "number": "6", "street": "Sickles Place", "unit": "", "city": "Shrewsbury", "district": "", "region": "NJ", "postcode": "07702", "id": null},